timestamp,TimeUS,Th0,UR,UP,UY
1746304113.70300007,45856647,0.0,-0.000842157518491149,-0.0007317740237340331,-0.001015269779600203
1746304113.70500016,45858647,0.0,-0.0008406028500758111,-0.0007295308168977499,-0.0010153092443943024
1746304113.70799994,45861647,0.0,-0.0008427040884271264,-0.0007186079164966941,-0.0010154190240427852
1746304113.71000004,45863647,0.0,-0.000846922630444169,-0.0007087509147822857,-0.0010154902702197433
1746304113.71300006,45866647,0.0,-0.0008534291991963983,-0.0007115204352885485,-0.0010155868949368596
1746304113.71500015,45868647,0.0,-0.0008597340784035623,-0.0007234484073705971,-0.0010155743220821023
1746304113.71799994,45871647,0.0,-0.0008668613154441118,-0.0007373621338047087,-0.0010152600007131696
1746304113.72000003,45873647,0.0,-0.00087045191321522,-0.0007396035362035036,-0.0010149236768484116
1746304113.72300005,45876647,0.0,-0.0008746905368752778,-0.0007375861750915647,-0.0010143059771507978
1746304113.72500014,45878647,0.0,-0.0008720559417270124,-0.0007388962549157441,-0.0010136066703125834
1746304113.72800016,45881647,0.0,-0.000872221018653363,-0.0007416523876599967,-0.0010123476386070251
1746304113.73000002,45883647,0.0,-0.000873030920047313,-0.0007401515613310039,-0.0010114711476489902
1746304113.73300004,45886647,0.0,-0.0008717359742149711,-0.0007482790970243514,-0.001010201289318502
1746304113.73500013,45888647,0.0,-0.0008723873179405928,-0.0007532566669397056,-0.0010094863828271627
1746304113.73800015,45891647,0.0,-0.0008705995278432965,-0.000763298012316227,-0.0010088963899761438
1746304113.74000001,45893647,0.0,-0.0008733509457670152,-0.0007653796346858144,-0.0010086892871186137
1746304113.74300003,45896647,0.0,-0.0008785504614934325,-0.0007661257986910641,-0.0010087514529004693
1746304113.74500012,45898647,0.0,-0.0008839117945171893,-0.000764479220379144,-0.0010088897543027997
1746304113.74800014,45901647,0.0,-0.0008955507073551416,-0.0007549522561021149,-0.001009109546430409
1746304113.75000000,45903647,0.0,-0.0009004294988699257,-0.0007482377695851028,-0.0010091537842527032
1746304113.75300002,45906647,0.0,-0.0008959692204371095,-0.0007377967704087496,-0.0010090455180034041
1746304113.75500011,45908647,0.0,-0.000887516769580543,-0.0007286666659638286,-0.001008873339742422
1746304113.75800014,45911647,0.0,-0.0008733309805393219,-0.0007186257280409336,-0.0010084948735311627
1746304113.75999999,45913647,0.0,-0.0008674756973050535,-0.0007224369328469038,-0.0010083327069878578
1746304113.76300001,45916647,0.0,-0.0008641847525723279,-0.000728102691937238,-0.0010083464439958334
1746304113.76500010,45918647,0.0,-0.0008615441620349884,-0.0007301666773855686,-0.0010084365494549274
1746304113.76800013,45921647,0.0,-0.0008594001410529017,-0.0007305385079234838,-0.0010087116388604045
1746304113.76999998,45923647,0.0,-0.0008598342537879944,-0.0007301707519218326,-0.0010088247945532203
1746304113.77300000,45926647,0.0,-0.0008653601980768144,-0.0007322923047468066,-0.0010088632116094232
1746304113.77500010,45928647,0.0,-0.0008685151697136462,-0.0007408203091472387,-0.0010088500566780567
1746304113.77800012,45931647,0.0,-0.0008727545500732958,-0.0007559462101198733,-0.0010089502902701497
1746304113.77999997,45933647,0.0,-0.0008803206728771329,-0.0007622091216035187,-0.001009119674563408
1746304113.78299999,45936647,0.0,-0.0008916872902773321,-0.0007690617348998785,-0.0010096068726852536
1746304113.78500009,45938647,0.0,-0.0008925695437937975,-0.0007675815722905099,-0.0010099932551383972
1746304113.78800011,45941647,0.0,-0.0008890973986126482,-0.000761290721129626,-0.0010105253895744681
1746304113.78999996,45943647,0.0,-0.0008861644309945405,-0.0007625487050972879,-0.0010108507703989744
1746304113.79299998,45946647,0.0,-0.0008754119626246393,-0.0007596843643113971,-0.0010112576419487596
1746304113.79500008,45948647,0.0,-0.0008696216973476112,-0.0007548597059212625,-0.0010114128235727549
1746304113.79800010,45951647,0.0,-0.0008622533059678972,-0.0007436501327902079,-0.0010112849995493889
1746304113.79999995,45953647,0.0,-0.0008588688215240836,-0.0007413685088977218,-0.0010110881412401795
1746304113.80299997,45956647,0.0,-0.0008535509114153683,-0.0007460177293978631,-0.0010106078116223216
1746304113.80500007,45958647,0.0,-0.0008494534413330257,-0.0007473854348063469,-0.0010101905791088939
1746304113.80800009,45961647,0.0,-0.0008398721111007035,-0.0007365112542174757,-0.0010095947654917836
1746304113.80999994,45963647,0.0,-0.000829357304610312,-0.0007249305490404367,-0.0010092315496876836
1746304113.81299996,45966647,0.0,-0.0008350667194463313,-0.0007312176749110222,-0.001008762395940721
1746304113.81500006,45968647,0.0,-0.0008291358826681972,-0.0007276232936419547,-0.0010085235117003322
1746304113.81800008,45971647,0.0,-0.0008326126262545586,-0.0007214211509563029,-0.0010082849767059088
1746304113.82000017,45973647,0.0,-0.000839314772747457,-0.0007144421688281,-0.001008127466775477
1746304113.82299995,45976647,0.0,-0.000845927803311497,-0.0007061539217829704,-0.0010078323539346457
1746304113.82500005,45978647,0.0,-0.0008544778684154153,-0.0007023387588560581,-0.0010073098819702864
1746304113.82800007,45981647,0.0,-0.0008681799517944455,-0.0006999010220170021,-0.001006053644232452
1746304113.83000016,45983647,0.0,-0.0008764845551922917,-0.0007027626852504909,-0.001005089026875794
1746304113.83299994,45986647,0.0,-0.000879558443557471,-0.000709770480170846,-0.001003506244160235
1746304113.83500004,45988647,0.0,-0.000879518745932728,-0.0007122998940758407,-0.0010024652583524585
1746304113.83800006,45991647,0.0,-0.0008775375317782164,-0.0007067004917189479,-0.001001241966150701
1746304113.84000015,45993647,0.0,-0.0008748245891183615,-0.0007031325367279351,-0.001000674208626151
1746304113.84299994,45996647,0.0,-0.0008656427962705493,-0.0007054827874526381,-0.001000459073111415
1746304113.84500003,45998647,0.0,-0.0008573011145927012,-0.0007140683010220528,-0.0010005853837355971
1746304113.84800005,46001647,0.0,-0.0008482225821353495,-0.0007213822100311518,-0.0010011420818045735
1746304113.85000014,46003647,0.0,-0.0008458289667032659,-0.0007243593572638929,-0.0010015182197093964
1746304113.85300016,46006647,0.0,-0.0008366408874280751,-0.0007200341206043959,-0.001002217992208898
1746304113.85500002,46008647,0.0,-0.0008323693764396012,-0.0007147683063521981,-0.0010027475655078888
1746304113.85800004,46011647,0.0,-0.0008327631512656808,-0.0007115461048670113,-0.0010036505991593003
1746304113.86000013,46013647,0.0,-0.0008368028793483973,-0.0007154751801863313,-0.001004168065264821
1746304113.86300015,46016647,0.0,-0.00083703245036304,-0.00071557960473001,-0.001004610094241798
1746304113.86500001,46018647,0.0,-0.0008386007393710315,-0.0007144526462070644,-0.001004817197099328
1746304113.86800003,46021647,0.0,-0.0008451167377643287,-0.0007087143021635711,-0.0010049737757071853
1746304113.87000012,46023647,0.0,-0.000845877977553755,-0.0007082332158461213,-0.001005009631626308
1746304113.87300014,46026647,0.0,-0.0008523794240318239,-0.0007063261000439525,-0.0010048222029581666
1746304113.87500000,46028647,0.0,-0.0008603743626736104,-0.0007069571875035763,-0.0010045805247500539
1746304113.87800002,46031647,0.0,-0.0008656164282001555,-0.0007138052023947239,-0.0010040488559752703
1746304113.88000011,46033647,0.0,-0.0008631220553070307,-0.000719002855475992,-0.0010035689920186996
1746304113.88300014,46036647,0.0,-0.0008542922441847622,-0.0007345316116698086,-0.0010028716642409563
1746304113.88499999,46038647,0.0,-0.0008509752224199474,-0.0007447702228091657,-0.0010024759685620666
1746304113.88800001,46041647,0.0,-0.0008500796393491328,-0.0007501073996536434,-0.0010019639739766717
1746304113.89000010,46043647,0.0,-0.0008509700419381261,-0.000748689635656774,-0.001001641503535211
1746304113.89300013,46046647,0.0,-0.0008366857655346394,-0.0007282766164280474,-0.0010011178674176335
1746304113.89499998,46048647,0.0,-0.0008327501709572971,-0.0007154591730795801,-0.0010008568642660975
1746304113.89800000,46051647,0.0,-0.000834879232570529,-0.0007063703378662467,-0.0010005937656387687
1746304113.90000010,46053647,0.0,-0.0008364638779312372,-0.0007068737759254873,-0.0010005258955061436
1746304113.90300012,46056647,0.0,-0.0008355200989171863,-0.0007121790549717844,-0.0010008341632783413
1746304113.90499997,46058647,0.0,-0.000832975551020354,-0.0007168638403527439,-0.0010011589620262384
1746304113.90799999,46061647,0.0,-0.0008335018646903336,-0.0007228521280921996,-0.0010017158929258585
1746304113.91000009,46063647,0.0,-0.0008332025026902556,-0.0007283845916390419,-0.0010019601322710514
1746304113.91300011,46066647,0.0,-0.0008332579163834453,-0.000732006854377687,-0.0010022562928497791
1746304113.91499996,46068647,0.0,-0.0008307867683470249,-0.0007271331269294024,-0.0010023746872320771
1746304113.91799998,46071647,0.0,-0.0008293925202451646,-0.0007215910009108484,-0.001002431963570416
1746304113.92000008,46073647,0.0,-0.0008320871856994927,-0.0007176270009949803,-0.0010023668874055147
1746304113.92300010,46076647,0.0,-0.0008348380215466022,-0.0007214784272946417,-0.001001917407847941
1746304113.92499995,46078647,0.0,-0.0008382362429983914,-0.0007232312927953899,-0.0010013022692874074
1746304113.92799997,46081647,0.0,-0.0008361708605661988,-0.0007208063616417348,-0.0010003065690398216
1746304113.93000007,46083647,0.0,-0.0008396156481467187,-0.0007222698186524212,-0.0009997154120355844
1746304113.93300009,46086647,0.0,-0.0008407187997363508,-0.0007197374943643808,-0.0009990480029955506
1746304113.93499994,46088647,0.0,-0.0008429764420725405,-0.0007164656417444348,-0.0009987271623685956
1746304113.93799996,46091647,0.0,-0.0008416060009039938,-0.0007147409487515688,-0.00099862867500633
1746304113.94000006,46093647,0.0,-0.0008392637828364968,-0.0007138874498195946,-0.0009986681398004293
1746304113.94300008,46096647,0.0,-0.0008278256864286959,-0.0007110523292794824,-0.0009987386874854565
1746304113.94500017,46098647,0.0,-0.0008204468176700175,-0.0007082617375999689,-0.0009987505618482828
1746304113.94799995,46101647,0.0,-0.0008245343342423439,-0.0006987283704802394,-0.0009985787328332663
1746304113.95000005,46103647,0.0,-0.0008322419016622007,-0.0006943007465451956,-0.0009983490454033017
1746304113.95300007,46106647,0.0,-0.0008425926207564771,-0.0006965693319216371,-0.0009978000307455659
1746304113.95500016,46108647,0.0,-0.0008512987988069654,-0.0006976478616707027,-0.0009973287815228105
1746304113.95799994,46111647,0.0,-0.0008632689132355154,-0.0006939676823094487,-0.0009964928030967712
1746304113.96000004,46113647,0.0,-0.000868420407641679,-0.0006910332012921572,-0.0009960560128092766
1746304113.96300006,46116647,0.0,-0.0008695481228642166,-0.0006847975309938192,-0.000995592214167118
1746304113.96500015,46118647,0.0,-0.0008699637255631387,-0.0006851793150417507,-0.0009953045519068837
1746304113.96799994,46121647,0.0,-0.0008648709626868367,-0.0006887248600833118,-0.0009948377264663577
1746304113.97000003,46123647,0.0,-0.0008543245494365692,-0.0006925071938894689,-0.0009945407509803772
1746304113.97300005,46126647,0.0,-0.0008489159517921507,-0.000701974902767688,-0.0009940477320924401
1746304113.97500014,46128647,0.0,-0.0008496055961586535,-0.0007088894490152597,-0.0009936833521351218
1746304113.97800016,46131647,0.0,-0.0008478295640088618,-0.0007117528584785759,-0.0009932544780895114
1746304113.98000002,46133647,0.0,-0.0008436788921244442,-0.0007095938199199736,-0.0009930552914738655
1746304113.98300004,46136647,0.0,-0.000842022942379117,-0.0007106084376573563,-0.0009931909153237939
1746304113.98500013,46138647,0.0,-0.0008431784808635712,-0.0007153167389333248,-0.0009934331756085157
1746304113.98800015,46141647,0.0,-0.0008433808106929064,-0.0007278915145434439,-0.0009940920863300562
1746304113.99000001,46143647,0.0,-0.0008350297575816512,-0.0007331506931222975,-0.0009946917416527867
1746304113.99300003,46146647,0.0,-0.0008283552597276866,-0.0007295061368495226,-0.00099573761690408
1746304113.99500012,46148647,0.0,-0.0008251401595771313,-0.0007184144924394786,-0.0009964947821572423
1746304113.99800014,46151647,0.0,-0.0008244403870776296,-0.0007125440752133727,-0.0009976164437830448
1746304114.00000000,46153647,0.0,-0.0008305225055664778,-0.0007121827802620828,-0.0009983910713344812
1746304114.00300002,46156647,0.0,-0.000840091030113399,-0.0007156711653806269,-0.0009997349698096514
1746304114.00500011,46158647,0.0,-0.0008452353649772704,-0.0007163789123296738,-0.0010007470846176147
1746304114.00800014,46161647,0.0,-0.0008498248644173145,-0.0007166137802414596,-0.0010023972718045115
1746304114.00999999,46163647,0.0,-0.0008496172958984971,-0.0007224713335745037,-0.001003416022285819
1746304114.01300001,46166647,0.0,-0.0008509592735208571,-0.0007292230729945004,-0.0010046224342659116
1746304114.01500010,46168647,0.0,-0.0008538471884094179,-0.0007351243984885514,-0.001005194615572691
1746304114.01800013,46171647,0.0,-0.000856553204357624,-0.0007379285525530577,-0.001005671452730894
1746304114.01999998,46173647,0.0,-0.0008598656859248877,-0.0007341100135818124,-0.0010059194173663855
1746304114.02300000,46176647,0.0,-0.0008590669604018331,-0.0007264047744683921,-0.0010062911314889789
1746304114.02500010,46178647,0.0,-0.0008560512214899063,-0.0007196784135885537,-0.001006426988169551
1746304114.02800012,46181647,0.0,-0.0008496768423356116,-0.0007173421327024698,-0.0010067168623209
1746304114.02999997,46183647,0.0,-0.0008439334924332798,-0.0007174941711127758,-0.0010069153504446149
1746304114.03299999,46186647,0.0,-0.0008368036360479891,-0.0007167289732024074,-0.0010070604039356112
1746304114.03500009,46188647,0.0,-0.0008348628180101514,-0.0007244035950861871,-0.001007072045467794
1746304114.03800011,46191647,0.0,-0.0008340662461705506,-0.0007315471302717924,-0.0010070741409435868
1746304114.03999996,46193647,0.0,-0.0008372361189685762,-0.0007256601238623261,-0.0010072061559185386
1746304114.04299998,46196647,0.0,-0.0008354685851372778,-0.0007172476616688073,-0.0010074264137074351
1746304114.04500008,46198647,0.0,-0.0008355492609553039,-0.0007071226136758924,-0.0010074627352878451
1746304114.04800010,46201647,0.0,-0.000834466191008687,-0.0006985209765844047,-0.0010073051089420915
1746304114.04999995,46203647,0.0,-0.0008398585487157106,-0.0006966905202716589,-0.0010070587741211057
1746304114.05299997,46206647,0.0,-0.0008440965902991593,-0.0006896989652886987,-0.0010064265225082636
1746304114.05500007,46208647,0.0,-0.0008450834429822862,-0.0006867034826427698,-0.00100583431776613
1746304114.05800009,46211647,0.0,-0.0008455137140117586,-0.0006851515499874949,-0.0010048390831798315
1746304114.05999994,46213647,0.0,-0.0008433902403339744,-0.0006831728969700634,-0.0010042274370789528
1746304114.06299996,46216647,0.0,-0.0008419840596616268,-0.0006836112006567419,-0.0010036187013611197
1746304114.06500006,46218647,0.0,-0.0008399192010983825,-0.0006872675148770213,-0.0010032975114881992
1746304114.06800008,46221647,0.0,-0.000839444634038955,-0.000690509972628206,-0.0010029918048530817
1746304114.07000017,46223647,0.0,-0.0008422393002547324,-0.0006943945772945881,-0.001002868521027267
1746304114.07299995,46226647,0.0,-0.0008481292170472443,-0.000708806503098458,-0.0010030752746388316
1746304114.07500005,46228647,0.0,-0.0008525348966941237,-0.000721774238627404,-0.0010032820282503963
1746304114.07800007,46231647,0.0,-0.0008452003239654005,-0.0007324584294110537,-0.0010034933220595121
1746304114.08000016,46233647,0.0,-0.0008278936147689819,-0.0007259981939569116,-0.0010035164887085557
1746304114.08299994,46236647,0.0,-0.0008151201764121652,-0.0007175908540375531,-0.001003569457679987
1746304114.08500004,46238647,0.0,-0.0008153129601851106,-0.0007127182907424867,-0.00100363465026021
1746304114.08800006,46241647,0.0,-0.0008212904795072973,-0.0007100452203303576,-0.001003929297439754
1746304114.09000015,46243647,0.0,-0.0008248459780588746,-0.0007135536870919168,-0.0010042525827884674
1746304114.09299994,46246647,0.0,-0.000827019102871418,-0.000715909933205694,-0.0010048362892121077
1746304114.09500003,46248647,0.0,-0.0008270102553069592,-0.0007118892390280962,-0.0010053236037492752
1746304114.09800005,46251647,0.0,-0.0008203769684769213,-0.000710357679054141,-0.0010061756474897265
1746304114.10000014,46253647,0.0,-0.0008148839115165174,-0.000705923477653414,-0.0010066713439300656
1746304114.10300016,46256647,0.0,-0.000805454736109823,-0.0006947976653464139,-0.0010071952128782868
1746304114.10500002,46258647,0.0,-0.0008035963401198387,-0.0006942538893781602,-0.0010074289748445153
1746304114.10800004,46261647,0.0,-0.0008033534395508468,-0.0006961821345612407,-0.0010074892779812217
1746304114.11000013,46263647,0.0,-0.0008032284677028656,-0.0006895544938743114,-0.0010074203601107001
1746304114.11300015,46266647,0.0,-0.0008047216106206179,-0.0006886537885293365,-0.0010071429423987865
1746304114.11500001,46268647,0.0,-0.0008089737384580076,-0.0006920879823155701,-0.0010070618009194732
1746304114.11800003,46271647,0.0,-0.0008212754037231207,-0.0006907148635946214,-0.0010075126774609089
1746304114.12000012,46273647,0.0,-0.0008297535823658109,-0.0006844140007160604,-0.00100802315864712
1746304114.12300014,46276647,0.0,-0.000841794244479388,-0.0006755035137757659,-0.0010090603027492762
1746304114.12500000,46278647,0.0,-0.0008450228488072753,-0.0006754288915544748,-0.0010096696205437183
1746304114.12800002,46281647,0.0,-0.0008413389441557229,-0.0006749683525413275,-0.0010107428533956409
1746304114.13000011,46283647,0.0,-0.0008359901257790625,-0.0006727732834406197,-0.0010114097967743874
1746304114.13300014,46286647,0.0,-0.0008273430867120624,-0.0006764607387594879,-0.0010121276136487722
1746304114.13499999,46288647,0.0,-0.0008214325061999261,-0.0006799055263400078,-0.0010124188847839832
1746304114.13800001,46291647,0.0,-0.0008173533715307713,-0.0006827098550274968,-0.0010124343680217862
1746304114.14000010,46293647,0.0,-0.0008165674516931176,-0.0006829307531006634,-0.0010122107341885567
1746304114.14300013,46296647,0.0,-0.0008143555605784059,-0.000687231367919594,-0.0010113305179402232
1746304114.14499998,46298647,0.0,-0.0008117788820527494,-0.0006939818267710507,-0.0010105448309332132
1746304114.14800000,46301647,0.0,-0.0008081087144091725,-0.0006992479902692139,-0.0010091850999742746
1746304114.15000010,46303647,0.0,-0.0008044005371630192,-0.0006986837252043188,-0.0010082925437018275
1746304114.15300012,46306647,0.0,-0.000806730764452368,-0.0007015295559540391,-0.0010071395663544536
1746304114.15499997,46308647,0.0,-0.0008095967350527644,-0.0007061890792101622,-0.0010064104571938515
1746304114.15799999,46311647,0.0,-0.0008111093193292618,-0.0007146053831093013,-0.0010054282611235976
1746304114.16000009,46313647,0.0,-0.00081244035391137,-0.0007234554504975677,-0.00100492883939296
1746304114.16300011,46316647,0.0,-0.0008096799720078707,-0.0007271440117619932,-0.0010046312818303704
1746304114.16499996,46318647,0.0,-0.0008110442431643605,-0.0007258180994540453,-0.0010045585222542286
1746304114.16799998,46321647,0.0,-0.0008139381534419954,-0.000717805465683341,-0.00100462615955621
1746304114.17000008,46323647,0.0,-0.000814302999060601,-0.0007147808209992945,-0.0010047844843938947
1746304114.17300010,46326647,0.0,-0.0008174682734534144,-0.0007051015854813159,-0.0010052488651126623
1746304114.17499995,46328647,0.0,-0.0008213284891098738,-0.0006967925583012402,-0.001005562604404986
1746304114.17799997,46331647,0.0,-0.0008332821307703853,-0.0006896601407788694,-0.0010060076601803303
1746304114.18000007,46333647,0.0,-0.0008358970517292619,-0.000683972320985049,-0.0010061536449939013
1746304114.18300009,46336647,0.0,-0.0008348083938471973,-0.0006832460057921708,-0.0010059938067570329
1746304114.18499994,46338647,0.0,-0.0008395244367420673,-0.0006855205865576863,-0.0010058017214760184
1746304114.18799996,46341647,0.0,-0.0008443834958598018,-0.0006916088750585914,-0.0010052614379674196
1746304114.19000006,46343647,0.0,-0.0008417540229856968,-0.0006940292660146952,-0.0010048002004623413
1746304114.19300008,46346647,0.0,-0.0008349486743099988,-0.000705165381077677,-0.00100407050922513
1746304114.19500017,46348647,0.0,-0.0008292652782984078,-0.0007127532735466957,-0.0010036462917923927
1746304114.19799995,46351647,0.0,-0.0008243009797297418,-0.0007119167130440474,-0.0010031673591583967
1746304114.20000005,46353647,0.0,-0.0008220244781114161,-0.0007099599461071193,-0.0010029306868091226
1746304114.20300007,46356647,0.0,-0.0008167087216861546,-0.0007091999286785722,-0.001002875855192542
1746304114.20500016,46358647,0.0,-0.0008105792221613228,-0.0007091118022799492,-0.0010029448894783854
1746304114.20799994,46361647,0.0,-0.0008022671681828797,-0.0007100763032212853,-0.0010031461715698242
1746304114.21000004,46363647,0.0,-0.0008071292540989816,-0.0007087928242981434,-0.001003299024887383
1746304114.21300006,46366647,0.0,-0.0008224031771533191,-0.0007115285843610764,-0.0010036948369815946
1746304114.21500015,46368647,0.0,-0.0008346227696165442,-0.0007169527234509587,-0.0010040226625278592
1746304114.21799994,46371647,0.0,-0.0008487642044201493,-0.0007135304040275514,-0.0010045267408713698
1746304114.22000003,46373647,0.0,-0.0008470568573102355,-0.0007109553553164005,-0.0010048123076558113
1746304114.22300005,46376647,0.0,-0.0008339634514413774,-0.00071337929693982,-0.0010051376884803176
1746304114.22500014,46378647,0.0,-0.000827208103146404,-0.0007163243135437369,-0.0010051395511254668
1746304114.22800016,46381647,0.0,-0.000821150781121105,-0.0007117756176739931,-0.0010049135889858007
1746304114.23000002,46383647,0.0,-0.0008151673246175051,-0.0007080053328536451,-0.001004624180495739
1746304114.23300004,46386647,0.0,-0.0008098453399725258,-0.0006998199969530106,-0.0010038577020168304
1746304114.23500013,46388647,0.0,-0.000810739875305444,-0.0006946485373191535,-0.0010032417485490441
1746304114.23800015,46391647,0.0,-0.0008117466350086033,-0.0007002538768574595,-0.0010020722402259707
1746304114.24000001,46393647,0.0,-0.0008085149456746876,-0.0007045275415293872,-0.0010012098355218768
1746304114.24300003,46396647,0.0,-0.0008059787796810269,-0.000705657119397074,-0.0009999593021348119
1746304114.24500012,46398647,0.0,-0.0008055725484155118,-0.0007042975630611181,-0.0009992788545787334
1746304114.24800014,46401647,0.0,-0.0008047667797654867,-0.0007127522840164602,-0.0009986479999497533
1746304114.25000000,46403647,0.0,-0.0008088504546321929,-0.0007194848731160164,-0.0009982974734157324
1746304114.25300002,46406647,0.0,-0.0008173173409886658,-0.000716152775567025,-0.0009976434521377087
1746304114.25500011,46408647,0.0,-0.0008164318860508502,-0.0007109373109415174,-0.0009971900144591928
1746304114.25800014,46411647,0.0,-0.0008138028788380325,-0.0007061356445774436,-0.0009967308724299073
1746304114.25999999,46413647,0.0,-0.0008136305841617286,-0.0007032424327917397,-0.000996521906927228
1746304114.26300001,46416647,0.0,-0.0008255289285443723,-0.0006974432035349309,-0.0009963252814486623
1746304114.26500010,46418647,0.0,-0.0008361684158444405,-0.0006930319359526038,-0.0009962356416508555
1746304114.26800013,46421647,0.0,-0.000837190542370081,-0.000689098727889359,-0.0009961347095668316
1746304114.26999998,46423647,0.0,-0.0008313433500006795,-0.0006907060160301626,-0.0009961079340428114
1746304114.27300000,46426647,0.0,-0.0008252758998423815,-0.0006916546262800694,-0.0009960528695955873
1746304114.27500010,46428647,0.0,-0.0008253099513240159,-0.0006861606962047517,-0.0009959250455722213
1746304114.27800012,46431647,0.0,-0.0008231159881688654,-0.0006767199374735355,-0.0009956603171303868
1746304114.27999997,46433647,0.0,-0.0008217932190746069,-0.0006739223608747125,-0.0009954371489584446
1746304114.28299999,46436647,0.0,-0.0008245868957601488,-0.000671582471113652,-0.0009949069935828447
1746304114.28500009,46438647,0.0,-0.000826556992251426,-0.0006706678541377187,-0.0009944981429725885
1746304114.28800011,46441647,0.0,-0.0008289879187941551,-0.000672683643642813,-0.00099386484362185
1746304114.28999996,46443647,0.0,-0.0008344165980815887,-0.0006745744030922651,-0.0009935802081599832
1746304114.29299998,46446647,0.0,-0.0008387396228499711,-0.0006748941959813237,-0.0009934315457940102
1746304114.29500008,46448647,0.0,-0.0008314650622196496,-0.0006744268466718495,-0.0009933196706697345
1746304114.29800010,46451647,0.0,-0.0008226138888858259,-0.0006717584328725934,-0.000993040855973959
1746304114.29999995,46453647,0.0,-0.0008208825020119548,-0.0006712537724524736,-0.000992863904684782
1746304114.30299997,46456647,0.0,-0.0008010428864508867,-0.0006582273636013269,-0.0009924431797116995
1746304114.30500007,46458647,0.0,-0.0007918221526779234,-0.0006546943332068622,-0.0009921049932017922
1746304114.30800009,46461647,0.0,-0.0007857880555093288,-0.0006625788519158959,-0.0009916018461808562
1746304114.30999994,46463647,0.0,-0.0007876879535615444,-0.0006682898965664208,-0.000991302658803761
1746304114.31299996,46466647,0.0,-0.0007888210820965469,-0.0006795952212996781,-0.0009909888030961156
1746304114.31500006,46468647,0.0,-0.0007898611947894096,-0.0006841771537438035,-0.0009909641230478883
1746304114.31800008,46471647,0.0,-0.0007866746163927019,-0.0006932671531103551,-0.000991369946859777
1746304114.32000017,46473647,0.0,-0.0007868244429118931,-0.0007004577782936394,-0.0009918324649333954
1746304114.32299995,46476647,0.0,-0.0007853049319237471,-0.0007052471628412604,-0.00099277519620955
1746304114.32500005,46478647,0.0,-0.000782099727075547,-0.0007038355688564479,-0.0009932133834809065
1746304114.32800007,46481647,0.0,-0.0007854811265133321,-0.0006975248688831925,-0.0009937109425663948
1746304114.33000016,46483647,0.0,-0.000790682272054255,-0.0006944535998627543,-0.0009939777664840221
1746304114.33299994,46486647,0.0,-0.0007961876690387726,-0.0006883793394081295,-0.0009942130418494344
1746304114.33500004,46488647,0.0,-0.0007943215896375477,-0.0006861575529910624,-0.0009943529730662704
1746304114.33800006,46491647,0.0,-0.0007947208941914141,-0.0006878332933411002,-0.000994464266113937
1746304114.34000015,46493647,0.0,-0.0007944715325720608,-0.0006901739398017526,-0.0009944415651261806
1746304114.34299994,46496647,0.0,-0.0007995284395292401,-0.000682817364577204,-0.0009942924370989203
1746304114.34500003,46498647,0.0,-0.000808440032415092,-0.0006755957147106528,-0.0009941736934706569
1746304114.34800005,46501647,0.0,-0.0008180204313248396,-0.0006738939555361867,-0.000993940164335072
1746304114.35000014,46503647,0.0,-0.000819288776256144,-0.0006760213291272521,-0.00099378009326756
1746304114.35300016,46506647,0.0,-0.0008186104241758585,-0.0006835044478066266,-0.000993554713204503
1746304114.35500002,46508647,0.0,-0.0008181643206626177,-0.000684870348777622,-0.0009934724075719714
1746304114.35800004,46511647,0.0,-0.0008170058717951179,-0.0006779412506148219,-0.0009935674024745822
1746304114.36000013,46513647,0.0,-0.0008193737594410777,-0.0006717254291288555,-0.0009935784619301558
1746304114.36300015,46516647,0.0,-0.0008277833112515509,-0.0006650953437201679,-0.0009935519192367792
1746304114.36500001,46518647,0.0,-0.0008348302217200398,-0.0006613494479097426,-0.0009935781126841903
1746304114.36800003,46521647,0.0,-0.000841714208945632,-0.0006551661062985659,-0.0009936122223734856
1746304114.37000012,46523647,0.0,-0.0008435049676336348,-0.0006521398318000138,-0.0009936308488249779
1746304114.37300014,46526647,0.0,-0.0008375769248232245,-0.0006584899383597076,-0.000993512338027358
1746304114.37500000,46528647,0.0,-0.0008291978156194091,-0.0006645740359090269,-0.0009932240936905146
1746304114.37800002,46531647,0.0,-0.0008165675099007785,-0.000668826571200043,-0.000992542365565896
1746304114.38000011,46533647,0.0,-0.0008137134136632085,-0.0006740332464687526,-0.000992093700915575
1746304114.38300014,46536647,0.0,-0.0008076502708718181,-0.0006828493787907064,-0.0009915279224514961
1746304114.38499999,46538647,0.0,-0.0008045540889725089,-0.0006853592931292951,-0.0009912081295624375
1746304114.38800001,46541647,0.0,-0.0008024316048249602,-0.0006825140444561839,-0.0009906376944854856
1746304114.39000010,46543647,0.0,-0.0008016477222554386,-0.0006791499326936901,-0.0009902059100568295
1746304114.39300013,46546647,0.0,-0.0008081063278950751,-0.0006762002012692392,-0.00098960823379457
1746304114.39499998,46548647,0.0,-0.0008131854119710624,-0.0006766938604414463,-0.0009892783127725124
1746304114.39800000,46551647,0.0,-0.000815371167846024,-0.0006724299164488912,-0.0009891182417050004
1746304114.40000010,46553647,0.0,-0.0008151493966579437,-0.0006655996548943222,-0.000989121152088046
1746304114.40300012,46556647,0.0,-0.0008132238290272653,-0.0006612342549487948,-0.0009891651570796967
1746304114.40499997,46558647,0.0,-0.0008126262109726667,-0.0006615652819164097,-0.0009891180088743567
1746304114.40799999,46561647,0.0,-0.0008134086383506656,-0.0006639946368522942,-0.000988893792964518
1746304114.41000009,46563647,0.0,-0.000815495615825057,-0.0006635002791881561,-0.0009886210318654776
1746304114.41300011,46566647,0.0,-0.0008198116556741297,-0.0006625948590226471,-0.0009880163706839085
1746304114.41499996,46568647,0.0,-0.000819584121927619,-0.0006676840130239725,-0.000987610430456698
1746304114.41799998,46571647,0.0,-0.0008173728128895164,-0.0006750664324499667,-0.0009871667716652155
1746304114.42000008,46573647,0.0,-0.0008169840439222753,-0.0006785702425986528,-0.0009869399946182966
1746304114.42300010,46576647,0.0,-0.0008102465653792024,-0.0006920837913639843,-0.0009868248598650098
1746304114.42499995,46578647,0.0,-0.0008039831300266087,-0.0007005123770795763,-0.0009866106556728482
1746304114.42799997,46581647,0.0,-0.0007971249287948012,-0.000703910191077739,-0.00098622206132859
1746304114.43000007,46583647,0.0,-0.0007990063168108463,-0.0006997585296630859,-0.0009858959820121527
1746304114.43300009,46586647,0.0,-0.0008079364197328687,-0.0006913737743161619,-0.0009851976064965129
1746304114.43499994,46588647,0.0,-0.0008111596689559519,-0.0006886410410515964,-0.0009847079636529088
1746304114.43799996,46591647,0.0,-0.0008091609342955053,-0.0006916244165040553,-0.0009838998084887862
1746304114.44000006,46593647,0.0,-0.0008050984470173717,-0.0006917411810718477,-0.0009833133080974221
1746304114.44300008,46596647,0.0,-0.0008007984142750502,-0.0006870673387311399,-0.000982627272605896
1746304114.44500017,46598647,0.0,-0.000801274087280035,-0.0006814132211729884,-0.0009822486899793148
1746304114.44799995,46601647,0.0,-0.0008087910246104002,-0.0006786532467231154,-0.000981801189482212
1746304114.45000005,46603647,0.0,-0.0008095180965028703,-0.0006757394294254482,-0.0009814712684601545
1746304114.45300007,46606647,0.0,-0.0008147323969751596,-0.0006673401803709567,-0.000981109798885882
1746304114.45500016,46608647,0.0,-0.0008183615282177925,-0.0006629720446653664,-0.0009809761540964246
1746304114.45799994,46611647,0.0,-0.0008177175768651068,-0.0006616716855205595,-0.0009810281917452812
1746304114.46000004,46613647,0.0,-0.0008118491969071329,-0.0006666501867584884,-0.0009811768541112542
1746304114.46300006,46616647,0.0,-0.0007993273320607841,-0.0006750752218067646,-0.0009816151577979326
1746304114.46500015,46618647,0.0,-0.0007922393851913512,-0.0006796913221478462,-0.0009818804683163762
1746304114.46799994,46621647,0.0,-0.0007886825478635728,-0.0006882290472276509,-0.00098223180975765
1746304114.47000003,46623647,0.0,-0.0007923738448880613,-0.0006927420618012547,-0.0009823950240388513
1746304114.47300005,46626647,0.0,-0.0008012936450541019,-0.0006959501188248396,-0.0009823822183534503
1746304114.47500014,46628647,0.0,-0.0008060941472649574,-0.0006951796822249889,-0.0009822979336604476
1746304114.47800016,46631647,0.0,-0.0008055810467340052,-0.0006900355219841003,-0.000982194673269987
1746304114.48000002,46633647,0.0,-0.0008065430447459221,-0.000685253122355789,-0.0009820717386901379
1746304114.48300004,46636647,0.0,-0.000807397358585149,-0.0006774739013053477,-0.0009816896636039019
1746304114.48500013,46638647,0.0,-0.0008073393837548792,-0.0006779749528504908,-0.0009813647484406829
1746304114.48800015,46641647,0.0,-0.0008089389884844422,-0.0006790849729441106,-0.0009807874448597431
1746304114.49000001,46643647,0.0,-0.0008121117716655135,-0.0006790068582631648,-0.0009803402936086059
1746304114.49300003,46646647,0.0,-0.0008211553213186562,-0.0006812260253354907,-0.0009794438956305385
1746304114.49500012,46648647,0.0,-0.0008307896787300706,-0.0006826421013101935,-0.0009787663584575057
1746304114.49800014,46651647,0.0,-0.0008393683820031583,-0.0006825921009294689,-0.0009777673985809088
1746304114.50000000,46653647,0.0,-0.0008446307620033622,-0.0006815389497205615,-0.0009771372424438596
1746304114.50300002,46656647,0.0,-0.0008454883354716003,-0.0006791374762542546,-0.0009763665148057044
1746304114.50500011,46658647,0.0,-0.0008436473435722291,-0.0006797160604037344,-0.0009758597007021308
1746304114.50800014,46661647,0.0,-0.0008421200909651816,-0.000686933402903378,-0.0009751036996021867
1746304114.50999999,46663647,0.0,-0.0008429195731878281,-0.0006891894736327231,-0.0009746582945808768
1746304114.51300001,46666647,0.0,-0.0008393214666284621,-0.000689659034833312,-0.0009741488611325622
1746304114.51500010,46668647,0.0,-0.0008337268955074251,-0.0006884422618895769,-0.0009739123634062707
1746304114.51800013,46671647,0.0,-0.0008263005292974412,-0.0006848906050436199,-0.0009738256339915097
1746304114.51999998,46673647,0.0,-0.0008184443577192724,-0.0006862722220830619,-0.0009739137021824718
1746304114.52300000,46676647,0.0,-0.0008072853670455515,-0.0006841652211733162,-0.0009743308764882386
1746304114.52500010,46678647,0.0,-0.0008036918006837368,-0.0006820822018198669,-0.0009745018323883414
1746304114.52800012,46681647,0.0,-0.0008015491766855121,-0.0006769997416995466,-0.0009747377480380237
1746304114.52999997,46683647,0.0,-0.0007974897162057459,-0.0006743603735230863,-0.0009749037562869489
1746304114.53299999,46686647,0.0,-0.0007903862278908491,-0.0006661540828645229,-0.0009753103367984295
1746304114.53500009,46688647,0.0,-0.0007861562771722674,-0.0006687261047773063,-0.0009756184299476445
1746304114.53800011,46691647,0.0,-0.0007754805847071111,-0.000674683426041156,-0.0009761769906617701
1746304114.53999996,46693647,0.0,-0.0007708934717811644,-0.0006773028871975839,-0.0009765144786797464
1746304114.54299998,46696647,0.0,-0.0007756809936836362,-0.0006795938243158162,-0.0009769443422555923
1746304114.54500008,46698647,0.0,-0.0007800558232702315,-0.0006772407796233892,-0.0009770493488758802
1746304114.54800010,46701647,0.0,-0.0007862808997742832,-0.0006755280192010105,-0.0009768506279215217
1746304114.54999995,46703647,0.0,-0.0007896000752225518,-0.000671942310873419,-0.0009766115108504891
1746304114.55299997,46706647,0.0,-0.0007911164429970086,-0.0006682417588308454,-0.0009761343244463205
1746304114.55500007,46708647,0.0,-0.0007880441262386739,-0.0006634467281401157,-0.000975766044575721
1746304114.55800009,46711647,0.0,-0.0007902985089458525,-0.0006649949937127531,-0.000974987109657377
1746304114.55999994,46713647,0.0,-0.0007965873228386045,-0.000667451648041606,-0.0009743189439177513
1746304114.56299996,46716647,0.0,-0.0008080208790488541,-0.0006780334515497088,-0.0009732453618198633
1746304114.56500006,46718647,0.0,-0.0008180015138350427,-0.0006849782657809556,-0.0009725490235723555
1746304114.56800008,46721647,0.0,-0.0008272750419564545,-0.0006907479837536812,-0.000971607631072402
1746304114.57000017,46723647,0.0,-0.0008284524665214121,-0.0006934726261533797,-0.0009710524464026093
1746304114.57299995,46726647,0.0,-0.000824762973934412,-0.0007017066236585379,-0.0009705490665510297
1746304114.57500005,46728647,0.0,-0.0008257377776317298,-0.000704786682035774,-0.0009703461546450853
1746304114.57800007,46731647,0.0,-0.0008296306477859616,-0.0007074350141920149,-0.0009702983661554754
1746304114.58000016,46733647,0.0,-0.0008289830293506384,-0.0007069954299367964,-0.0009703270625323057
1746304114.58299994,46736647,0.0,-0.0008274244610220194,-0.0007060060161165893,-0.0009705823031254113
1746304114.58500004,46738647,0.0,-0.0008307363605126739,-0.0007021535420790315,-0.0009708708385005593
1746304114.58800006,46741647,0.0,-0.0008305991650559008,-0.0007029815460555255,-0.0009713484323583543
1746304114.59000015,46743647,0.0,-0.000825790106318891,-0.000701113254763186,-0.0009716647327877581
1746304114.59299994,46746647,0.0,-0.0008187965140677989,-0.0006978778401389718,-0.0009720975649543107
1746304114.59500003,46748647,0.0,-0.0008136319229379296,-0.0006919759907759726,-0.0009723494877107441
1746304114.59800005,46751647,0.0,-0.0008090983610600233,-0.0006874015089124441,-0.0009726826101541519
1746304114.60000014,46753647,0.0,-0.0008051007753238082,-0.0006845173775218427,-0.0009728970471769571
1746304114.60300016,46756647,0.0,-0.0008046908187679946,-0.0006833597435615957,-0.0009733995539136231
1746304114.60500002,46758647,0.0,-0.0008076785015873611,-0.0006824203883297741,-0.0009737567161209881
1746304114.60800004,46761647,0.0,-0.0008112929062917829,-0.0006779276882298291,-0.0009744223789311945
1746304114.61000013,46763647,0.0,-0.0008232347317971289,-0.0006815613596700132,-0.0009750013123266399
1746304114.61300015,46766647,0.0,-0.0008283021743409336,-0.0006832380895502865,-0.0009760907269082963
1746304114.61500001,46768647,0.0,-0.0008291745907627046,-0.0006885334732942283,-0.0009768884629011154
1746304114.61800003,46771647,0.0,-0.000824733346235007,-0.0006968547240830958,-0.0009781537810340524
1746304114.62000012,46773647,0.0,-0.0008085464360192418,-0.0006921664462424815,-0.0009789862670004368
1746304114.62300014,46776647,0.0,-0.000804327370133251,-0.0006898295832797885,-0.000980095355771482
1746304114.62500000,46778647,0.0,-0.0008179722353816032,-0.0007006307132542133,-0.0009805081645026803
1746304114.62800002,46781647,0.0,-0.0008308913093060255,-0.0007123657851479948,-0.0009807298192754388
1746304114.63000011,46783647,0.0,-0.0008350479765795171,-0.000712557986844331,-0.0009808255126699805
1746304114.63300014,46786647,0.0,-0.0008345761452801526,-0.0007116209017112851,-0.000980846700258553
1746304114.63499999,46788647,0.0,-0.000837686937302351,-0.0007113449973985553,-0.000980817130766809
1746304114.63800001,46791647,0.0,-0.0008379628998227417,-0.000703715137206018,-0.000980706070549786
1746304114.64000010,46793647,0.0,-0.0008405504049733281,-0.0006963973864912987,-0.0009806143352761865
1746304114.64300013,46796647,0.0,-0.0008435221388936043,-0.0006828007753938437,-0.0009806081652641296
1746304114.64499998,46798647,0.0,-0.0008387616835534573,-0.0006746749277226627,-0.0009806017624214292
1746304114.64800000,46801647,0.0,-0.0008319866028614342,-0.0006677194032818079,-0.0009803961729630828
1746304114.65000010,46803647,0.0,-0.0008289968827739358,-0.0006677288329228759,-0.000980054959654808
1746304114.65300012,46806647,0.0,-0.0008285986841656268,-0.0006791771738789976,-0.000979290227405727
1746304114.65499997,46808647,0.0,-0.0008281152695417404,-0.0006894830148667097,-0.000978687428869307
1746304114.65799999,46811647,0.0,-0.000826723116915673,-0.000697202340234071,-0.0009776378283277154
1746304114.66000009,46813647,0.0,-0.0008275277796201408,-0.0006994545692577958,-0.00097696075681597
1746304114.66300011,46816647,0.0,-0.0008357780170626938,-0.0007025012164376676,-0.0009760982356965542
1746304114.66499996,46818647,0.0,-0.0008376784389838576,-0.0007070519495755434,-0.0009755957289598882
1746304114.66799998,46821647,0.0,-0.0008358797640539706,-0.0007100750226527452,-0.00097513577202335
1746304114.67000008,46823647,0.0,-0.0008368156850337982,-0.0007106309058144689,-0.0009748341399244964
1746304114.67300010,46826647,0.0,-0.0008390994626097381,-0.000713256886228919,-0.0009742813999764621
1746304114.67499995,46828647,0.0,-0.0008431127644143999,-0.000711378175765276,-0.0009738990338519216
1746304114.67799997,46831647,0.0,-0.0008507973980158567,-0.0007007041713222861,-0.000973385467659682
1746304114.68000007,46833647,0.0,-0.0008515994995832443,-0.0006911253440193832,-0.0009730053716339171
1746304114.68300009,46836647,0.0,-0.0008454075432382524,-0.0006787045276723802,-0.0009723755647428334
1746304114.68499994,46838647,0.0,-0.000838983163703233,-0.0006737344665452838,-0.0009718943620100617
1746304114.68799996,46841647,0.0,-0.0008304291404783726,-0.0006763035780750215,-0.0009711237507872283
1746304114.69000006,46843647,0.0,-0.0008198731229640543,-0.0006798480171710253,-0.0009706384735181928
1746304114.69300008,46846647,0.0,-0.0008099597180262208,-0.00068888277746737,-0.0009701743838377297
1746304114.69500017,46848647,0.0,-0.0008057713275775313,-0.0006955289863981307,-0.0009700257214717567
1746304114.69799995,46851647,0.0,-0.000806941301561892,-0.0007031841087155044,-0.0009702285169623792
1746304114.70000005,46853647,0.0,-0.0008113982621580362,-0.0007050028652884066,-0.0009705095435492694
1746304114.70300007,46856647,0.0,-0.0008111607749015093,-0.0007072502048686147,-0.0009710044250823557
1746304114.70500016,46858647,0.0,-0.0008089282200671732,-0.0007092024316079915,-0.0009713601320981979
1746304114.70799994,46861647,0.0,-0.0008144880412146449,-0.0007112397579476237,-0.0009718213696032763
1746304114.71000004,46863647,0.0,-0.0008199835428968072,-0.0007113879546523094,-0.0009720472735352814
1746304114.71300006,46866647,0.0,-0.0008331584976986051,-0.0007117028580978513,-0.0009722438990138471
1746304114.71500015,46868647,0.0,-0.000844258873257786,-0.0007094067404977977,-0.0009722841205075383
1746304114.71799994,46871647,0.0,-0.0008498096140101552,-0.0007021866622380912,-0.0009721840033307672
1746304114.72000003,46873647,0.0,-0.0008494431967847049,-0.0007011774578131735,-0.000972037494648248
1746304114.72300005,46876647,0.0,-0.0008472236222587526,-0.0006948841037228703,-0.0009716346976347268
1746304114.72500014,46878647,0.0,-0.0008441690588369966,-0.0006876757834106684,-0.0009711701422929764
1746304114.72800016,46881647,0.0,-0.0008324675727635622,-0.0006754896603524685,-0.0009705713600851595
1746304114.73000002,46883647,0.0,-0.0008283643401227891,-0.000674537499435246,-0.0009702825336717069
1746304114.73300004,46886647,0.0,-0.0008191628730855882,-0.0006740269018337131,-0.0009699920192360878
1746304114.73500013,46888647,0.0,-0.0008128517074510455,-0.0006733897025696933,-0.0009698304929770529
1746304114.73800015,46891647,0.0,-0.0008103994186967611,-0.0006722912075929344,-0.0009696303750388324
1746304114.74000001,46893647,0.0,-0.0008115508826449513,-0.0006715644849464297,-0.0009694604086689651
1746304114.74300003,46896647,0.0,-0.0008122940780594945,-0.0006663296953774989,-0.0009690797887742519
1746304114.74500012,46898647,0.0,-0.0008112825453281403,-0.0006641570362262428,-0.0009688203572295606
1746304114.74800014,46901647,0.0,-0.0008101042476482689,-0.0006675688200630248,-0.0009682716336101294
1746304114.75000000,46903647,0.0,-0.0008107832982204854,-0.0006699476507492363,-0.0009678834467194974
1746304114.75300002,46906647,0.0,-0.0008134078234434128,-0.0006719636730849743,-0.0009673538152128458
1746304114.75500011,46908647,0.0,-0.0008160599390976131,-0.000672750233206898,-0.0009669961291365325
1746304114.75800014,46911647,0.0,-0.0008287898381240666,-0.0006800710689276457,-0.0009664561948738992
1746304114.75999999,46913647,0.0,-0.0008385684923268855,-0.0006877948180772364,-0.0009661720250733197
1746304114.76300001,46916647,0.0,-0.0008491243934258819,-0.0006946465582586825,-0.000965949846431613
1746304114.76500010,46918647,0.0,-0.0008492523338645697,-0.0006972667761147022,-0.0009658526978455484
1746304114.76800013,46921647,0.0,-0.000842682144138962,-0.0007079233764670789,-0.000965867075137794
1746304114.76999998,46923647,0.0,-0.0008361278451047838,-0.0007075538160279393,-0.0009659003699198365
1746304114.77300000,46926647,0.0,-0.0008295481093227863,-0.0007088332786224782,-0.0009660132345743477
1746304114.77500010,46928647,0.0,-0.0008294963045045733,-0.0007070805295370519,-0.0009661182411946356
1746304114.77800012,46931647,0.0,-0.0008276465232484043,-0.0007010233239270747,-0.0009662940283305943
1746304114.77999997,46933647,0.0,-0.0008303807117044926,-0.0007015966111794114,-0.0009664144017733634
1746304114.78299999,46936647,0.0,-0.0008367353584617376,-0.0007008234388194978,-0.000966823601629585
1746304114.78500009,46938647,0.0,-0.0008406265405938029,-0.0006958767189644277,-0.0009672034066170454
1746304114.78800011,46941647,0.0,-0.0008399000507779419,-0.0006834715022705495,-0.0009680547518655658
1746304114.78999996,46943647,0.0,-0.0008359857019968331,-0.0006767238955944777,-0.0009687149431556463
1746304114.79299998,46946647,0.0,-0.0008310188422910869,-0.0006758975214324892,-0.00096980418311432
1746304114.79500008,46948647,0.0,-0.00082923355512321,-0.0006761080003343523,-0.0009704763651825488
1746304114.79800010,46951647,0.0,-0.0008327835821546614,-0.0006815236993134022,-0.0009710561134852469
1746304114.79999995,46953647,0.0,-0.000839591259136796,-0.0006845107418484986,-0.0009711603634059429
1746304114.80299997,46956647,0.0,-0.0008382088853977621,-0.0006835419917479157,-0.0009709452278912067
1746304114.80500007,46958647,0.0,-0.0008328676922246814,-0.0006850321660749614,-0.0009707205463200808
1746304114.80800009,46961647,0.0,-0.0008253577980212867,-0.0006891271914355457,-0.0009703292162157595
1746304114.80999994,46963647,0.0,-0.0008201362215913832,-0.0006931028328835964,-0.0009700804366730154
1746304114.81299996,46966647,0.0,-0.0008160496363416314,-0.0006917471182532609,-0.000969814951531589
1746304114.81500006,46968647,0.0,-0.000816428626421839,-0.0006875456310808659,-0.0009697124478407204
1746304114.81800008,46971647,0.0,-0.0008125912863761187,-0.0006873651873320341,-0.0009698622161522508
1746304114.82000017,46973647,0.0,-0.0008093660580925643,-0.0006878804415464401,-0.0009701196104288101
1746304114.82299995,46976647,0.0,-0.0008158093551173806,-0.0006880383007228374,-0.0009709207224659622
1746304114.82500005,46978647,0.0,-0.0008226564968936145,-0.0006893673562444746,-0.000971354020293802
1746304114.82800007,46981647,0.0,-0.0008284799987450242,-0.000688590225763619,-0.0009722647373564541
1746304114.83000016,46983647,0.0,-0.000829257711302489,-0.0006883523892611265,-0.0009729896555654705
1746304114.83299994,46986647,0.0,-0.0008360192296095192,-0.0006924757035449147,-0.0009742423426359892
1746304114.83500004,46988647,0.0,-0.0008453536429442465,-0.0007000822224654257,-0.000975126342382282
1746304114.83800006,46991647,0.0,-0.0008584074093960226,-0.0007109561702236533,-0.0009765645954757929
1746304114.84000015,46993647,0.0,-0.0008613393874838948,-0.0007131601450964808,-0.0009775348007678986
1746304114.84299994,46996647,0.0,-0.0008531096973456442,-0.0007180251413956285,-0.0009788715979084373
1746304114.84500003,46998647,0.0,-0.0008435390773229301,-0.0007255589589476585,-0.0009796095546334982
1746304114.84800005,47001647,0.0,-0.0008321862551383674,-0.0007280771969817579,-0.0009803872089833021
1746304114.85000014,47003647,0.0,-0.0008267362718470395,-0.0007239504484459758,-0.0009808363392949104
1746304114.85300016,47006647,0.0,-0.000820798275526613,-0.0007106870762072504,-0.0009813490323722363
1746304114.85500002,47008647,0.0,-0.0008128904737532139,-0.0007006294908933342,-0.0009815637022256851
1746304114.85800004,47011647,0.0,-0.0008052916964516044,-0.0006913709221407771,-0.0009816394886001945
1746304114.86000013,47013647,0.0,-0.0007994455518200994,-0.0006854970706626773,-0.0009815633529797196
1746304114.86300015,47016647,0.0,-0.0007970402366481721,-0.0006850164500065148,-0.0009812206262722611
1746304114.86500001,47018647,0.0,-0.000797874410636723,-0.000694513728376478,-0.000980900600552559
1746304114.86800003,47021647,0.0,-0.000807038159109652,-0.0007044798112474382,-0.0009802107233554125
1746304114.87000012,47023647,0.0,-0.0008135415846481919,-0.0007036330061964691,-0.0009796887170523405
1746304114.87300014,47026647,0.0,-0.0008160269353538752,-0.0006988501991145313,-0.00097884691786021
1746304114.87500000,47028647,0.0,-0.0008178254356607795,-0.0006991604459472001,-0.0009782452834770083
1746304114.87800002,47031647,0.0,-0.0008189699146896601,-0.0006996779702603817,-0.0009773442288860679
1746304114.88000011,47033647,0.0,-0.0008250572136603296,-0.0006991075933910906,-0.0009767126757651567
1746304114.88300014,47036647,0.0,-0.0008324927184730768,-0.0006931907846592367,-0.0009757903171703219
1746304114.88499999,47038647,0.0,-0.0008370167342945933,-0.0006847133045084774,-0.0009751672623679042
1746304114.88800001,47041647,0.0,-0.0008418861543759704,-0.0006758681847713888,-0.000974293623585254
1746304114.89000010,47043647,0.0,-0.000846083159558475,-0.0006743925623595715,-0.0009737739455886185
1746304114.89300013,47046647,0.0,-0.0008501027477905154,-0.0006771718035452068,-0.0009730675956234336
1746304114.89499998,47048647,0.0,-0.0008626871858723462,-0.0006900739390403032,-0.0009726142743602395
1746304114.89800000,47051647,0.0,-0.0008659245213493705,-0.0007073593442328274,-0.0009718461660668254
1746304114.90000010,47053647,0.0,-0.0008645892376080155,-0.0007149782031774521,-0.0009713314939290285
1746304114.90300012,47056647,0.0,-0.0008692705887369812,-0.0007153971237130463,-0.0009706528508104384
1746304114.90499997,47058647,0.0,-0.0008684935746714473,-0.000715199566911906,-0.0009702855022624135
1746304114.90799999,47061647,0.0,-0.0008661411702632904,-0.0007182300905697048,-0.0009698380599729717
1746304114.91000009,47063647,0.0,-0.0008631865493953228,-0.0007179045351222157,-0.0009695247281342745
1746304114.91300011,47066647,0.0,-0.0008563261362724006,-0.0007116385386325419,-0.0009689181460998952
1746304114.91499996,47068647,0.0,-0.0008541728020645678,-0.0007112734601832926,-0.0009683992830105126
1746304114.91799998,47071647,0.0,-0.0008543016156181693,-0.0007139479275792837,-0.0009675518376752734
1746304114.92000008,47073647,0.0,-0.0008560045389458537,-0.0007146933930926025,-0.000967027444858104
1746304114.92300010,47076647,0.0,-0.0008524436852894723,-0.0007168219308368862,-0.0009665261604823172
1746304114.92499995,47078647,0.0,-0.0008514405344612896,-0.0007180528482422233,-0.0009661761578172445
1746304114.92799997,47081647,0.0,-0.0008511773776262999,-0.0007181921973824501,-0.0009658720227889717
1746304114.93000007,47083647,0.0,-0.0008432541508227587,-0.0007213326171040535,-0.0009657764458097517
1746304114.93300009,47086647,0.0,-0.0008365694666281343,-0.0007194397039711475,-0.000965854327660054
1746304114.93499994,47088647,0.0,-0.0008355232421308756,-0.0007202416309155524,-0.0009659122442826629
1746304114.93799996,47091647,0.0,-0.0008403959218412638,-0.000719453499186784,-0.0009661517688073218
1746304114.94000006,47093647,0.0,-0.0008422494283877313,-0.0007153498008847237,-0.0009663777309469879
1746304114.94300008,47096647,0.0,-0.0008372586453333497,-0.0007034111185930669,-0.0009667628910392523
1746304114.94500017,47098647,0.0,-0.0008355141035281122,-0.000695579859893769,-0.0009670460713095963
1746304114.94799995,47101647,0.0,-0.0008365276735275984,-0.000687248189933598,-0.0009675261098891497
1746304114.95000005,47103647,0.0,-0.0008361520594917238,-0.0006830886704847217,-0.0009677877533249557
1746304114.95300007,47106647,0.0,-0.0008392694871872663,-0.0006858294364064932,-0.0009679852519184351
1746304114.95500016,47108647,0.0,-0.0008405856788158417,-0.0006884783506393433,-0.000968025007750839
1746304114.95799994,47111647,0.0,-0.0008407548302784562,-0.0006968354573473334,-0.0009679857175797224
1746304114.96000004,47113647,0.0,-0.0008426625281572342,-0.0007025166414678097,-0.0009679481736384332
1746304114.96300006,47116647,0.0,-0.0008426327258348465,-0.0007079452043399215,-0.000967922736890614
1746304114.96500015,47118647,0.0,-0.0008444982813671231,-0.000713832734618336,-0.0009679353679530323
1746304114.96799994,47121647,0.0,-0.0008506554295308888,-0.000725815596524626,-0.0009681358933448792
1746304114.97000003,47123647,0.0,-0.0008560403366573155,-0.000728536571841687,-0.0009683507378213108
1746304114.97300005,47126647,0.0,-0.0008597499690949917,-0.0007278301054611802,-0.0009687511483207345
1746304114.97500014,47128647,0.0,-0.0008591738878749311,-0.0007268331828527153,-0.0009690526057966053
1746304114.97800016,47131647,0.0,-0.0008578655542805791,-0.000723962439224124,-0.0009696541237644851
1746304114.98000002,47133647,0.0,-0.0008566465694457293,-0.0007189522148109972,-0.0009700419032014906
1746304114.98300004,47136647,0.0,-0.0008601905428804457,-0.0007050277199596167,-0.0009705501142889261
1746304114.98500013,47138647,0.0,-0.0008654763805679977,-0.0006916190031915903,-0.0009708896977826953
1746304114.98800015,47141647,0.0,-0.0008724174695089459,-0.000692215166054666,-0.0009714369080029428
1746304114.99000001,47143647,0.0,-0.0008753170259296894,-0.0006993691204115748,-0.0009718148503452539
1746304114.99300003,47146647,0.0,-0.0008699999307282269,-0.0007062911172397435,-0.0009726392454467714
1746304114.99500012,47148647,0.0,-0.0008644374902360141,-0.0007012128480710089,-0.0009732465841807425
1746304114.99800014,47151647,0.0,-0.0008545397431589663,-0.0006988199311308563,-0.0009741405374370515
1746304115.00000000,47153647,0.0,-0.0008459283271804452,-0.0007024590740911663,-0.0009746492141857743
1746304115.00300002,47156647,0.0,-0.0008311375859193504,-0.0007110187434591353,-0.0009749761666171253
1746304115.00500011,47158647,0.0,-0.0008241237374022603,-0.0007181904511526227,-0.0009750096942298114
1746304115.00800014,47161647,0.0,-0.0008183935424312949,-0.0007290553767234087,-0.0009748163283802569
1746304115.00999999,47163647,0.0,-0.0008201578166335821,-0.0007391943945549428,-0.0009747267467901111
1746304115.01300001,47166647,0.0,-0.0008264521020464599,-0.0007426730589941144,-0.0009746311116032302
1746304115.01500010,47168647,0.0,-0.000829617609269917,-0.0007382230251096189,-0.0009745604475028813
1746304115.01800013,47171647,0.0,-0.0008291854173876345,-0.000731388689018786,-0.0009743603295646608
1746304115.01999998,47173647,0.0,-0.0008205784833990037,-0.0007301137666217983,-0.0009742462425492704
1746304115.02300000,47176647,0.0,-0.0008152441005222499,-0.0007335782283917069,-0.0009743469418026507
1746304115.02500010,47178647,0.0,-0.0008144195890054107,-0.0007432769634760916,-0.0009742779657244682
1746304115.02800012,47181647,0.0,-0.0008369706338271499,-0.0007572047761641443,-0.0009739484521560371
1746304115.02999997,47183647,0.0,-0.0008571617654524744,-0.0007548508001491427,-0.0009737180662341416
1746304115.03299999,47186647,0.0,-0.0008833069005049765,-0.0007426751544699073,-0.0009736412321217358
1746304115.03500009,47188647,0.0,-0.0008933243807405233,-0.0007348474464379251,-0.0009737270302139223
1746304115.03800011,47191647,0.0,-0.0008957153186202049,-0.0007195417420007288,-0.0009739019442349672
1746304115.03999996,47193647,0.0,-0.0008912531775422394,-0.0007115193293429911,-0.0009739295928739011
1746304115.04299998,47196647,0.0,-0.0008857751963660121,-0.0007040410418994725,-0.0009738539229147136
1746304115.04500008,47198647,0.0,-0.0008833149913698435,-0.0007015776936896145,-0.0009737436193972826
1746304115.04800010,47201647,0.0,-0.0008796975598670542,-0.0006981657934375107,-0.0009734004852361977
1746304115.04999995,47203647,0.0,-0.0008730696281418204,-0.0006970500107854605,-0.0009730211459100246
1746304115.05299997,47206647,0.0,-0.0008671098039485514,-0.0006998968310654163,-0.0009723039693199098
1746304115.05500007,47208647,0.0,-0.0008678465383127332,-0.0007095669861882925,-0.0009718667133711278
1746304115.05800009,47211647,0.0,-0.0008649795781821012,-0.0007221003179438412,-0.0009715947671793401
1746304115.05999994,47213647,0.0,-0.0008667453657835722,-0.0007300221477635205,-0.0009714803309179842
1746304115.06299996,47216647,0.0,-0.0008770093554630876,-0.00073672563303262,-0.0009713725885376334
1746304115.06500006,47218647,0.0,-0.0008814837783575058,-0.000737448688596487,-0.0009712624014355242
1746304115.06800008,47221647,0.0,-0.0008842074894346297,-0.0007370871608145535,-0.0009712321916595101
1746304115.07000017,47223647,0.0,-0.0008816242916509509,-0.0007364575285464525,-0.0009711834136396646
1746304115.07299995,47226647,0.0,-0.000868113711476326,-0.000734135857783258,-0.0009710917947813869
1746304115.07500005,47228647,0.0,-0.0008571695652790368,-0.0007321392768062651,-0.0009710011654533446
1746304115.07800007,47231647,0.0,-0.0008452370529994369,-0.0007315578404814005,-0.0009704616968519986
1746304115.08000016,47233647,0.0,-0.0008374469471164048,-0.0007260051206685603,-0.0009699336369521916
1746304115.08299994,47236647,0.0,-0.0008340858039446175,-0.0007195465732365847,-0.0009688986465334892
1746304115.08500004,47238647,0.0,-0.0008333016885444522,-0.0007188885356299579,-0.0009681394440121949
1746304115.08800006,47241647,0.0,-0.0008374264580197632,-0.0007221295963972807,-0.0009668123093433678
1746304115.09000015,47243647,0.0,-0.0008396897464990616,-0.0007315081893466413,-0.0009658380295149982
1746304115.09299994,47246647,0.0,-0.0008424277184531093,-0.0007316276314668357,-0.0009644781821407378
1746304115.09500003,47248647,0.0,-0.0008460913086310029,-0.0007230315823107958,-0.0009636784670874476
1746304115.09800005,47251647,0.0,-0.0008541590068489313,-0.0007112560560926795,-0.0009625338716432452
1746304115.10000014,47253647,0.0,-0.0008573352824896574,-0.0007068722043186426,-0.0009618139010854065
1746304115.10300016,47256647,0.0,-0.0008612855453975499,-0.0007041340577416122,-0.0009609136614017189
1746304115.10500002,47258647,0.0,-0.0008672231342643499,-0.0007079526549205184,-0.0009604073711670935
1746304115.10800004,47261647,0.0,-0.0008685039356350899,-0.0007207634625956416,-0.000959971861448139
1746304115.11000013,47263647,0.0,-0.0008624378824606538,-0.0007280755671672523,-0.000959790195338428
1746304115.11300015,47266647,0.0,-0.0008512110216543078,-0.0007309523643925786,-0.0009595771552994847
1746304115.11500001,47268647,0.0,-0.0008438293589279056,-0.0007320618606172502,-0.0009594896691851318
1746304115.11800003,47271647,0.0,-0.000846588343847543,-0.0007271962240338326,-0.0009594219154678285
1746304115.12000012,47273647,0.0,-0.0008466553990729153,-0.0007274810341186821,-0.0009593681315891445
1746304115.12300014,47276647,0.0,-0.0008496625232510269,-0.0007324484759010375,-0.0009594836155883968
1746304115.12500000,47278647,0.0,-0.0008535541128367186,-0.0007247551693581045,-0.000959426979534328
1746304115.12800002,47281647,0.0,-0.0008541425922885537,-0.0007150976452976465,-0.0009594112634658813
1746304115.13000011,47283647,0.0,-0.000854450452607125,-0.0007145595736801624,-0.0009594623115845025
1746304115.13300014,47286647,0.0,-0.0008583115413784981,-0.0007074876339174807,-0.0009597584139555693
1746304115.13499999,47288647,0.0,-0.0008596287225373089,-0.0007043698569759727,-0.0009600273333489895
1746304115.13800001,47291647,0.0,-0.0008598705753684044,-0.0007046566461212933,-0.0009604907245375216
1746304115.14000010,47293647,0.0,-0.0008654771372675896,-0.0007112094317562878,-0.0009607207612134516
1746304115.14300013,47296647,0.0,-0.0008801941876299679,-0.0007207491435110569,-0.0009608529508113861
1746304115.14499998,47298647,0.0,-0.0008841330418363214,-0.0007267700275406241,-0.0009609262924641371
1746304115.14800000,47301647,0.0,-0.0008864310220815241,-0.0007312349625863135,-0.0009609732660464942
1746304115.15000010,47303647,0.0,-0.0008846800774335861,-0.0007310612127184868,-0.0009609186672605574
1746304115.15300012,47306647,0.0,-0.0008773337467573583,-0.0007258342229761183,-0.0009607583633624017
1746304115.15499997,47308647,0.0,-0.0008695967262610793,-0.0007239599945023656,-0.0009607415413483977
1746304115.15799999,47311647,0.0,-0.0008603741880506277,-0.0007313785026781261,-0.0009611179702915251
1746304115.16000009,47313647,0.0,-0.000866278016474098,-0.0007442443748004735,-0.000961518322583288
1746304115.16300011,47316647,0.0,-0.0008704124484211206,-0.0007497072219848633,-0.0009624906233511865
1746304115.16499996,47318647,0.0,-0.0008667258080095053,-0.0007496961043216288,-0.0009631860884837806
1746304115.16799998,47321647,0.0,-0.0008631612872704864,-0.0007479781052097678,-0.0009641466895118356
1746304115.17000008,47323647,0.0,-0.0008611306548118591,-0.0007463877554982901,-0.0009647380793467164
1746304115.17300010,47326647,0.0,-0.0008719621691852808,-0.0007455961313098669,-0.0009653265005908906
1746304115.17499995,47328647,0.0,-0.0008787502883933485,-0.0007419110625050962,-0.0009655155008658767
