timestamp,TimeUS,X,Y,Z
1746304113.70300007,45856647,-0.012599263340234756,0.012013730593025684,0.012042265385389328
1746304113.70500016,45858647,-0.01263696514070034,0.012049422599375248,0.012042183429002762
1746304113.70799994,45861647,-0.012693610973656178,0.012103050015866756,0.012042057700455189
1746304113.71000004,45863647,-0.012498216703534126,0.01191761251538992,0.012041660957038403
1746304113.71300006,45866647,-0.012554499320685863,0.011970936320722103,0.01204153336584568
1746304113.71500015,45868647,-0.012592073529958725,0.012006553821265697,0.012041446752846241
1746304113.71799994,45871647,-0.012648528441786766,0.012060064822435379,0.012041309848427773
1746304113.72000003,45873647,-0.012686232104897499,0.012095795013010502,0.012041216716170311
1746304113.72300005,45876647,-0.012519198469817638,0.01193742360919714,0.012040769681334496
1746304113.72500014,45878647,-0.01255668606609106,0.011972949840128422,0.012040680274367332
1746304113.72800016,45881647,-0.0126130236312747,0.01202632300555706,0.012040546163916588
1746304113.73000002,45883647,-0.012650663033127785,0.012061954475939274,0.012040458619594574
1746304113.73300004,45886647,-0.012707234360277653,0.012115475721657276,0.012040328234434128
1746304113.73500013,45888647,-0.012531437911093235,0.011948731727898121,0.012039940804243088
1746304113.73800015,45891647,-0.012587693519890308,0.012001928873360157,0.012039802968502045
1746304113.74000001,45893647,-0.012625260278582573,0.012037437409162521,0.01203971728682518
1746304113.74300003,45896647,-0.012681717984378338,0.012090783566236496,0.012039585039019585
1746304113.74500012,45898647,-0.012719433754682541,0.012126400135457516,0.012039488181471825
1746304113.74800014,45901647,-0.012571591883897781,0.011986009776592255,0.01203905325382948
1746304113.75000000,45903647,-0.012609128840267658,0.012021448463201523,0.012038947083055973
1746304113.75300002,45906647,-0.01266554743051529,0.01207469031214714,0.012038793414831161
1746304113.75500011,45908647,-0.01270323060452938,0.012110249139368534,0.012038694694638252
1746304113.75800014,45911647,-0.012759843841195107,0.012163684703409672,0.01203854475170374
1746304113.75999999,45913647,-0.012602631002664566,0.012014457955956459,0.01203817967325449
1746304113.76300001,45916647,-0.012658958323299885,0.012067648582160473,0.012038018554449081
1746304113.76500010,45918647,-0.01269657164812088,0.012103172950446606,0.012037903070449829
1746304113.76800013,45921647,-0.012753081507980824,0.012156558223068714,0.01203772984445095
1746304113.76999998,45923647,-0.012790813110768795,0.01219222042709589,0.012037623673677444
1746304113.77300000,45926647,-0.012661012820899487,0.012068960815668106,0.012037212029099464
1746304113.77500010,45928647,-0.012698600068688393,0.012104477733373642,0.012037087231874466
1746304113.77800012,45931647,-0.012755090370774269,0.012157846242189407,0.012036905623972416
1746304113.77999997,45933647,-0.012792817316949368,0.01219349168241024,0.012036794796586037
1746304113.78299999,45936647,-0.01284950040280819,0.012247061356902122,0.012036645784974098
1746304113.78500009,45938647,-0.012709775939583778,0.012114432640373707,0.012036320753395557
1746304113.78800011,45941647,-0.01276625320315361,0.01216778252273798,0.012036186642944813
1746304113.78999996,45943647,-0.012803972698748112,0.012203396297991276,0.012036110274493694
1746304113.79299998,45946647,-0.012860658578574657,0.012256891466677189,0.012036001309752464
1746304113.79500008,45948647,-0.01289853174239397,0.01229261513799429,0.012035924941301346
1746304113.79800010,45951647,-0.01278587244451046,0.012185459956526756,0.012035596184432507
1746304113.79999995,45953647,-0.012823617085814476,0.012221056967973709,0.012035518884658813
1746304113.80299997,45956647,-0.012880314141511917,0.012274549342691898,0.01203540712594986
1746304113.80500007,45958647,-0.01291817519813776,0.012310275807976723,0.012035337276756763
1746304113.80800009,45961647,-0.012975072488188744,0.012363947927951813,0.012035236693918705
1746304113.80999994,45963647,-0.012692885473370552,0.012096133083105087,0.012034988030791283
1746304113.81299996,45966647,-0.012749233283102512,0.012149247340857983,0.01203487440943718
1746304113.81500006,45968647,-0.012786862440407276,0.01218471024185419,0.012034785933792591
1746304113.81800008,45971647,-0.012843388132750988,0.012237987481057644,0.012034643441438675
1746304113.82000017,45973647,-0.01288111787289381,0.012273562140762806,0.012034544721245766
1746304113.82299995,45976647,-0.012630362063646317,0.012035591527819633,0.012034210376441479
1746304113.82500005,45978647,-0.012667720206081867,0.012070818804204464,0.012034106999635696
1746304113.82800007,45981647,-0.012723836116492748,0.012123750522732735,0.012033963575959206
1746304113.83000016,45983647,-0.012761293910443783,0.012159103527665138,0.012033872306346893
1746304113.83299994,45986647,-0.012817560695111752,0.012212214060127735,0.012033742852509022
1746304113.83500004,45988647,-0.01256101205945015,0.01196887157857418,0.012033495120704174
1746304113.83800006,45991647,-0.012616734951734543,0.01202149037271738,0.012033384293317795
1746304113.84000015,45993647,-0.012653941288590431,0.012056616134941578,0.012033319100737572
1746304113.84299994,45996647,-0.012709842063486576,0.012109378352761269,0.012033226899802685
1746304113.84500003,45998647,-0.012747171334922314,0.012144606560468674,0.012033160775899887
1746304113.84800005,46001647,-0.012521014548838139,0.011929964646697044,0.012032896280288696
1746304113.85000014,46003647,-0.012558013200759888,0.01196487620472908,0.012032825499773026
1746304113.85300016,46006647,-0.012613605707883835,0.012017318978905678,0.012032726779580116
1746304113.85500002,46008647,-0.012650728225708008,0.012052332982420921,0.012032663449645042
1746304113.85800004,46011647,-0.012706510722637177,0.01210493128746748,0.012032582424581051
1746304113.86000013,46013647,-0.012473851442337036,0.011884169653058052,0.01203237660229206
1746304113.86300015,46016647,-0.012529188767075539,0.011936320923268795,0.012032289057970047
1746304113.86500001,46018647,-0.012566146440804005,0.01197114959359169,0.012032226659357548
1746304113.86800003,46021647,-0.012621676549315453,0.012023481540381908,0.01203212421387434
1746304113.87000012,46023647,-0.012658756226301193,0.012058418244123459,0.012032058089971542
1746304113.87300014,46026647,-0.012455511838197708,0.011865401640534401,0.01203182339668274
1746304113.87500000,46028647,-0.012492294423282146,0.011900044977664948,0.012031766586005688
1746304113.87800002,46031647,-0.01254755537956953,0.011952090077102184,0.012031679973006248
1746304113.88000011,46033647,-0.012584459967911243,0.011986843310296535,0.012031620368361473
1746304113.88300014,46036647,-0.012639905326068401,0.012039060704410076,0.01203153096139431
1746304113.88499999,46038647,-0.01242938544601202,0.01183924451470375,0.012031342834234238
1746304113.88800001,46041647,-0.012484385631978512,0.011891058646142483,0.012031268328428268
1746304113.89000010,46043647,-0.012521112337708473,0.011925656348466873,0.012031222693622112
1746304113.89300013,46046647,-0.012576290406286716,0.011977626010775566,0.012031150981783867
1746304113.89499998,46048647,-0.0126131447032094,0.012012321501970291,0.012031103484332561
1746304113.89800000,46051647,-0.012431127019226551,0.011839357204735279,0.01203091163188219
1746304113.90000010,46053647,-0.012467730790376663,0.011873806826770306,0.012030869722366333
1746304113.90300012,46056647,-0.01252273004502058,0.011925583705306053,0.012030807323753834
1746304113.90499997,46058647,-0.012559454888105392,0.011960161849856377,0.012030763551592827
1746304113.90799999,46061647,-0.012614632025361061,0.012012097053229809,0.01203068159520626
1746304113.91000009,46063647,-0.012424640357494354,0.011831688694655895,0.01203049998730421
1746304113.91300011,46066647,-0.012479451484978199,0.011883283033967018,0.01203039288520813
1746304113.91499996,46068647,-0.012516048736870289,0.011917737312614918,0.012030317448079586
1746304113.91799998,46071647,-0.012571022845804691,0.011969493702054024,0.01203018706291914
1746304113.92000008,46073647,-0.012607723474502563,0.01200404204428196,0.012030092068016529
1746304113.92300010,46076647,-0.012445379048585892,0.011849879287183285,0.012029832229018211
1746304113.92499995,46078647,-0.012481850571930408,0.011884201318025589,0.012029732577502728
1746304113.92799997,46081647,-0.012536641210317612,0.011935758404433727,0.012029587291181087
1746304113.93000007,46083647,-0.012573223561048508,0.01197018101811409,0.012029502540826797
1746304113.93300009,46086647,-0.012628171592950821,0.012021894566714764,0.012029382400214672
1746304113.93499994,46088647,-0.01245729811489582,0.011859773658216,0.012029197067022324
1746304113.93799996,46091647,-0.012511903420090675,0.011911191046237946,0.012029093690216541
1746304113.94000006,46093647,-0.012548374012112617,0.011945508420467377,0.012029034085571766
1746304113.94300008,46096647,-0.012603172101080418,0.011997055262327194,0.01202893815934658
1746304113.94500017,46098647,-0.012639757245779037,0.012031471356749535,0.01202886737883091
1746304113.94799995,46101647,-0.012496059760451317,0.011894923634827137,0.012028668075799942
1746304113.95000005,46103647,-0.012532456777989864,0.01192913856357336,0.012028601951897144
1746304113.95300007,46106647,-0.012587139382958412,0.011980528011918068,0.012028507888317108
1746304113.95500016,46108647,-0.012623653747141361,0.01201483141630888,0.01202845573425293
1746304113.95799994,46111647,-0.012678503058850765,0.012066375464200974,0.012028370052576065
1746304113.96000004,46113647,-0.01252579316496849,0.011921391822397709,0.012028220109641552
1746304113.96300006,46116647,-0.012580362148582935,0.011972692795097828,0.012028132565319538
1746304113.96500015,46118647,-0.012616803869605064,0.01200694590806961,0.012028072960674763
1746304113.96799994,46121647,-0.012671563774347305,0.012058409862220287,0.012027984485030174
1746304113.97000003,46123647,-0.012708134949207306,0.012092783115804195,0.012027936056256294
1746304113.97300005,46126647,-0.012582111172378063,0.011972921900451183,0.012027788907289505
1746304113.97500014,46128647,-0.012618530541658401,0.012007133103907108,0.012027733027935028
1746304113.97800016,46131647,-0.012673255056142807,0.012058538384735584,0.01202763058245182
1746304113.98000002,46133647,-0.012709804810583591,0.012092869728803635,0.012027564458549023
1746304113.98300004,46136647,-0.012764724902808666,0.012144445441663265,0.01202747505158186
1746304113.98500013,46138647,-0.012629176490008831,0.012015670537948608,0.012027345597743988
1746304113.98800015,46141647,-0.012683862820267677,0.012067033909261227,0.012027260847389698
1746304113.99000001,46143647,-0.01272037997841835,0.012101338244974613,0.012027209624648094
1746304113.99300003,46146647,-0.012775236740708351,0.012152867391705513,0.012027138844132423
1746304113.99500012,46148647,-0.012811863794922829,0.012187279760837555,0.01202708575874567
1746304113.99800014,46151647,-0.012702506966888905,0.01208320539444685,0.012026934884488583
1746304114.00000000,46153647,-0.012738977558910847,0.012117499485611916,0.012026873417198658
1746304114.00300002,46156647,-0.012793784961104393,0.01216901559382677,0.012026784010231495
1746304114.00500011,46158647,-0.01283038966357708,0.01220340933650732,0.012026719748973846
1746304114.00800014,46161647,-0.01288537960499525,0.012255084700882435,0.012026619166135788
1746304114.00999999,46163647,-0.012607426382601261,0.011991934850811958,0.01202647015452385
1746304114.01300001,46166647,-0.012661757878959179,0.012042987160384655,0.012026380747556686
1746304114.01500010,46168647,-0.012698030099272728,0.012077060528099537,0.012026319280266762
1746304114.01800013,46171647,-0.012752518989145756,0.01212824322283268,0.012026214972138405
1746304114.01999998,46173647,-0.012788894586265087,0.012162407860159874,0.012026144191622734
1746304114.02300000,46176647,-0.012541218660771847,0.01192786730825901,0.01202594954520464
1746304114.02500010,46178647,-0.012577175162732601,0.011961611919105053,0.012025874108076096
1746304114.02800012,46181647,-0.012631175108253956,0.012012290768325329,0.012025764212012291
1746304114.02999997,46183647,-0.012667211703956127,0.012046121060848236,0.012025696225464344
1746304114.03299999,46186647,-0.012721325270831585,0.012096937745809555,0.012025583535432816
1746304114.03500009,46188647,-0.012468058615922928,0.011857242323458195,0.012025412172079086
1746304114.03800011,46191647,-0.012521576136350632,0.011907467618584633,0.012025278061628342
1746304114.03999996,46193647,-0.012557298876345158,0.011940999887883663,0.012025191448628902
1746304114.04299998,46196647,-0.01261095330119133,0.011991381645202637,0.012025055475533009
1746304114.04500008,46198647,-0.012646765448153019,0.012025012634694576,0.01202495489269495
1746304114.04800010,46201647,-0.012422635219991207,0.011812767945230007,0.012024722062051296
1746304114.04999995,46203647,-0.01245806086808443,0.011846045032143593,0.012024616822600365
1746304114.05299997,46206647,-0.012511282227933407,0.011896038427948952,0.01202444825321436
1746304114.05500007,46208647,-0.01254681870341301,0.01192941702902317,0.01202433742582798
1746304114.05800009,46211647,-0.012600195594131947,0.011979559436440468,0.012024186551570892
1746304114.05999994,46213647,-0.01236986555159092,0.011761585250496864,0.01202402077615261
1746304114.06299996,46216647,-0.012422692961990833,0.011811227537691593,0.012023884803056717
1746304114.06500006,46218647,-0.012457962147891521,0.011844366788864136,0.012023795396089554
1746304114.06800008,46221647,-0.012510917149484158,0.011894144117832184,0.012023665010929108
1746304114.07000017,46223647,-0.012546253390610218,0.011927377432584763,0.012023571878671646
1746304114.07299995,46226647,-0.01234396081417799,0.011735860258340836,0.01202336698770523
1746304114.07500005,46228647,-0.012378956191241741,0.011768779717385769,0.012023283168673515
1746304114.07800007,46231647,-0.01243154052644968,0.011818216182291508,0.012023148126900196
1746304114.08000016,46233647,-0.012466657906770706,0.011851218529045582,0.01202305406332016
1746304114.08299994,46236647,-0.012519409880042076,0.011900796554982662,0.012022925540804863
1746304114.08500004,46238647,-0.012310313060879707,0.011702900752425194,0.012022792361676693
1746304114.08800006,46241647,-0.012362572364509106,0.011752023361623287,0.012022675015032291
1746304114.09000015,46243647,-0.012397454120218754,0.01178482174873352,0.012022595852613449
1746304114.09299994,46246647,-0.012449842877686024,0.011834087781608105,0.012022470124065876
1746304114.09500003,46248647,-0.012484824284911156,0.011866978369653225,0.01202237606048584
1746304114.09800005,46251647,-0.012302828021347523,0.011694625951349735,0.012022178620100021
1746304114.10000014,46253647,-0.012337503023445606,0.011727232486009598,0.01202208362519741
1746304114.10300016,46256647,-0.012389578856527805,0.0117762116715312,0.01202194020152092
1746304114.10500002,46258647,-0.012424345128238201,0.01180889643728733,0.012021848000586033
1746304114.10800004,46261647,-0.012476574629545212,0.01185796968638897,0.012021716684103012
1746304114.11000013,46263647,-0.012287107296288013,0.011678614653646946,0.012021571397781372
1746304114.11300015,46266647,-0.01233888790011406,0.01172724086791277,0.012021406553685665
1746304114.11500001,46268647,-0.012373450212180614,0.01175970584154129,0.012021299451589584
1746304114.11800003,46271647,-0.01242536585777998,0.011808488517999649,0.012021159753203392
1746304114.12000012,46273647,-0.012460014782845974,0.011841061525046825,0.0120210787281394
1746304114.12300014,46276647,-0.012296725064516068,0.011686557903885841,0.012020912952721119
1746304114.12500000,46278647,-0.012331084348261356,0.011718855239450932,0.012020844034850597
1746304114.12800002,46281647,-0.012382698245346546,0.011767360381782055,0.012020745314657688
1746304114.13000011,46283647,-0.012417156249284744,0.01179974339902401,0.012020671740174294
1746304114.13300014,46286647,-0.012468917295336723,0.01184840127825737,0.012020550668239594
1746304114.13499999,46288647,-0.012297796085476875,0.011686568148434162,0.012020423077046871
1746304114.13800001,46291647,-0.012349161319434643,0.011734840460121632,0.01202030386775732
1746304114.14000010,46293647,-0.012383452616631985,0.011767067946493626,0.012020218186080456
1746304114.14300013,46296647,-0.012434963136911392,0.011815471574664116,0.012020085006952286
1746304114.14499998,46298647,-0.012469343841075897,0.011847780086100101,0.01202000118792057
1746304114.14800000,46301647,-0.01232389360666275,0.011710104532539845,0.01201983168721199
1746304114.15000010,46303647,-0.01235800888389349,0.011742173694074154,0.012019737623631954
1746304114.15300012,46306647,-0.01240924559533596,0.011790338903665543,0.012019598856568336
1746304114.15499997,46308647,-0.012443454004824162,0.011822487227618694,0.012019509449601173
1746304114.15799999,46311647,-0.012494849041104317,0.01187077071517706,0.012019382789731026
1746304114.16000009,46313647,-0.012341166846454144,0.01172539684921503,0.012019267305731773
1746304114.16300011,46316647,-0.012392195872962475,0.011773351579904556,0.012019133195281029
1746304114.16499996,46318647,-0.012426251545548439,0.011805356480181217,0.012019042856991291
1746304114.16799998,46321647,-0.012477392330765724,0.0118534155189991,0.01201891340315342
1746304114.17000008,46323647,-0.012511537410318851,0.01188549492508173,0.012018837034702301
1746304114.17300010,46326647,-0.012382937595248222,0.011763726361095905,0.012018713168799877
1746304114.17499995,46328647,-0.01241685263812542,0.011795584112405777,0.012018647976219654
1746304114.17799997,46331647,-0.012467795982956886,0.011843429878354073,0.012018552049994469
1746304114.18000007,46333647,-0.012501800432801247,0.011875374242663383,0.0120184775441885
1746304114.18300009,46336647,-0.01255286205559969,0.011923377402126789,0.012018364854156971
1746304114.18499994,46338647,-0.012415639124810696,0.011793586425483227,0.012018267996609211
1746304114.18799996,46341647,-0.012466425076127052,0.011841323226690292,0.012018132954835892
1746304114.19000006,46343647,-0.012500334531068802,0.011873189359903336,0.012018036097288132
1746304114.19300008,46346647,-0.012551270425319672,0.011921062134206295,0.01201789639890194
1746304114.19500017,46348647,-0.012585270218551159,0.011953025124967098,0.012017812579870224
1746304114.19799995,46351647,-0.012472680769860744,0.011846392415463924,0.012017689645290375
1746304114.20000005,46353647,-0.012506503611803055,0.01187815796583891,0.01201762817800045
1746304114.20300007,46356647,-0.012557313777506351,0.011925875209271908,0.01201754342764616
1746304114.20500016,46358647,-0.0125912269577384,0.011957726441323757,0.012017499655485153
1746304114.20799994,46361647,-0.0126421507447958,0.012005564756691456,0.012017451226711273
1746304114.21000004,46363647,-0.012366845272481441,0.011745576746761799,0.012017527595162392
1746304114.21300006,46366647,-0.012417017482221127,0.011792683973908424,0.012017505243420601
1746304114.21500015,46368647,-0.012450510635972023,0.011824121698737144,0.012017491273581982
1746304114.21799994,46371647,-0.012500803917646408,0.011871329508721828,0.012017454952001572
1746304114.22000003,46373647,-0.0125343669205904,0.011902831494808197,0.012017426081001759
1746304114.22300005,46376647,-0.012287174351513386,0.011669402942061424,0.012017464265227318
1746304114.22500014,46378647,-0.012320212088525295,0.01170041598379612,0.012017426081001759
1746304114.22800016,46381647,-0.01236981712281704,0.011746998876333237,0.012017364613711834
1746304114.23000002,46383647,-0.012402924709022045,0.011778089217841625,0.012017314322292805
1746304114.23300004,46386647,-0.012452637776732445,0.011824768036603928,0.01201721653342247
1746304114.23500013,46388647,-0.012200599536299706,0.011586870066821575,0.012017225846648216
1746304114.23800015,46391647,-0.012249583378434181,0.011632869020104408,0.012017108500003815
1746304114.24000001,46393647,-0.012282264418900013,0.011663567274808884,0.012017027474939823
1746304114.24300003,46396647,-0.012331333942711353,0.011709654703736305,0.012016909196972847
1746304114.24500012,46398647,-0.012364082038402557,0.011740405112504959,0.012016835622489452
1746304114.24800014,46401647,-0.012138932012021542,0.011527813971042633,0.012016805820167065
1746304114.25000000,46403647,-0.01217119675129652,0.011558120138943195,0.01201672200113535
1746304114.25300002,46406647,-0.012219645082950592,0.01160364132374525,0.012016595341265202
1746304114.25500011,46408647,-0.012251985259354115,0.011634018272161484,0.01201651245355606
1746304114.25800014,46411647,-0.012300553731620312,0.011679627932608128,0.012016376480460167
1746304114.25999999,46413647,-0.012070106342434883,0.011462109163403511,0.01201635878533125
1746304114.26300001,46416647,-0.012117981910705566,0.011507063172757626,0.01201620977371931
1746304114.26500010,46418647,-0.01214992068707943,0.011537062004208565,0.012016123160719872
1746304114.26800013,46421647,-0.012197877280414104,0.011582103557884693,0.012015998363494873
1746304114.26999998,46423647,-0.012229885905981064,0.011612164787948132,0.012015906162559986
1746304114.27300000,46426647,-0.012025180272758007,0.011418867856264114,0.012015852145850658
1746304114.27500010,46428647,-0.012056765146553516,0.011448529548943043,0.012015768326818943
1746304114.27800012,46431647,-0.012104174122214317,0.011493075639009476,0.012015643529593945
1746304114.27999997,46433647,-0.012135806493461132,0.011522804386913776,0.012015554122626781
1746304114.28299999,46436647,-0.01218330580741167,0.011567438952624798,0.012015429325401783
1746304114.28500009,46438647,-0.011972833424806595,0.011368805542588234,0.012015432119369507
1746304114.28800011,46441647,-0.012019701302051544,0.011412856169044971,0.012015305459499359
1746304114.28999996,46443647,-0.01205098070204258,0.011442256160080433,0.012015220709145069
1746304114.29299998,46446647,-0.01209794357419014,0.011486412025988102,0.012015104293823242
1746304114.29500008,46448647,-0.012129286304116249,0.011515886522829533,0.012015026062726974
1746304114.29800010,46451647,-0.011943494901061058,0.011340508237481117,0.012014986015856266
1746304114.29999995,46453647,-0.011974459514021873,0.011369614861905575,0.012014903128147125
1746304114.30299997,46456647,-0.012020970694720745,0.011413310654461384,0.012014788575470448
1746304114.30500007,46458647,-0.012052010744810104,0.011442460119724274,0.012014713138341904
1746304114.30800009,46461647,-0.012098611332476139,0.011486216448247433,0.012014610692858696
1746304114.30999994,46463647,-0.011906664818525314,0.011305028572678566,0.012014630250632763
1746304114.31299996,46466647,-0.011952701956033707,0.011348226107656956,0.012014529667794704
1746304114.31500006,46468647,-0.011983419768512249,0.011377058923244476,0.012014465406537056
1746304114.31800008,46471647,-0.012029528617858887,0.011420348659157753,0.012014366686344147
1746304114.32000017,46473647,-0.012060296721756458,0.011449228972196579,0.012014308013021946
1746304114.32299995,46476647,-0.011892079375684261,0.01129048690199852,0.012014311738312244
1746304114.32500005,46478647,-0.011922487989068031,0.011319022625684738,0.012014273554086685
1746304114.32800007,46481647,-0.01196814700961113,0.011361870914697647,0.012014243751764297
1746304114.33000016,46483647,-0.011998622678220272,0.01139046810567379,0.0120142363011837
1746304114.33299994,46486647,-0.012044384144246578,0.011433414183557034,0.012014228850603104
1746304114.33500004,46488647,-0.011869806796312332,0.01126877311617136,0.01201429683715105
1746304114.33800006,46491647,-0.01191504206508398,0.011311281472444534,0.012014273554086685
1746304114.34000015,46493647,-0.01194522250443697,0.011339661665260792,0.012014247477054596
1746304114.34299994,46496647,-0.011990530416369438,0.01138228178024292,0.012014213018119335
1746304114.34500003,46498647,-0.01202076394110918,0.0114107271656394,0.012014199048280716
1746304114.34800005,46501647,-0.01186931412667036,0.011267946101725101,0.012014245614409447
1746304114.35000014,46503647,-0.011899210512638092,0.011296112090349197,0.012014215812087059
1746304114.35300016,46506647,-0.011944105848670006,0.011338401585817337,0.012014161795377731
1746304114.35500002,46508647,-0.01197406928986311,0.01136662345379591,0.012014123611152172
1746304114.35800004,46511647,-0.012019055895507336,0.011409001424908638,0.012014055624604225
1746304114.36000013,46513647,-0.011861053295433521,0.011260086670517921,0.012014081701636314
1746304114.36300015,46516647,-0.011905564926564693,0.011302056722342968,0.012014007195830345
1746304114.36500001,46518647,-0.011935264803469181,0.01133007276803255,0.012013955973088741
1746304114.36800003,46521647,-0.011979866772890091,0.011372152715921402,0.012013869360089302
1746304114.37000012,46523647,-0.01200964767485857,0.011400245130062103,0.01201380230486393
1746304114.37300014,46526647,-0.011874204501509666,0.011272644624114037,0.012013783678412437
1746304114.37500000,46528647,-0.01190370786935091,0.011300494894385338,0.012013722211122513
1746304114.37800002,46531647,-0.011948024854063988,0.01134231686592102,0.012013623490929604
1746304114.38000011,46533647,-0.01197760459035635,0.011370225809514523,0.012013551779091358
1746304114.38300014,46536647,-0.012022032402455807,0.011412126943469048,0.012013432569801807
1746304114.38499999,46538647,-0.01187988556921482,0.011278160847723484,0.012013432569801807
1746304114.38800001,46541647,-0.01192392036318779,0.011319667100906372,0.01201334036886692
1746304114.39000010,46543647,-0.011953297071158886,0.011347364634275436,0.012013290077447891
1746304114.39300013,46546647,-0.01199740543961525,0.01138896495103836,0.012013223022222519
1746304114.39499998,46548647,-0.012026835232973099,0.01141673419624567,0.012013176456093788
1746304114.39800000,46551647,-0.011906654573976994,0.01130353007465601,0.012013180181384087
1746304114.40000010,46553647,-0.01193583570420742,0.01133106742054224,0.012013131752610207
1746304114.40300012,46556647,-0.011979656293988228,0.01137241255491972,0.01201305165886879
1746304114.40499997,46558647,-0.012008897960186005,0.011400006711483002,0.012012985534965992
1746304114.40799999,46561647,-0.012052795849740505,0.011441433802247047,0.01201288029551506
1746304114.41000009,46563647,-0.01178290881216526,0.011187087744474411,0.012012920342385769
1746304114.41300011,46566647,-0.011825932189822197,0.011227674782276154,0.01201280951499939
1746304114.41499996,46568647,-0.011854634620249271,0.011254748329520226,0.012012744322419167
1746304114.41799998,46571647,-0.011897722259163857,0.011295368894934654,0.012012668885290623
1746304114.42000008,46573647,-0.011926461011171341,0.011322465725243092,0.012012636289000511
1746304114.42300010,46576647,-0.011681446805596352,0.011091690510511398,0.012012687511742115
1746304114.42499995,46578647,-0.011709582060575485,0.011118224821984768,0.012012643739581108
1746304114.42799997,46581647,-0.011751786805689335,0.0111580491065979,0.012012580409646034
1746304114.43000007,46583647,-0.011779941618442535,0.011184612289071083,0.0120125412940979
1746304114.43300009,46586647,-0.011822194792330265,0.01122447568923235,0.012012472376227379
1746304114.43499994,46588647,-0.011573975905776024,0.010990692302584648,0.012012514285743237
1746304114.43799996,46591647,-0.011615414172410965,0.011029782705008984,0.012012419290840626
1746304114.44000006,46593647,-0.011643076315522194,0.011055869981646538,0.012012356892228127
1746304114.44300008,46596647,-0.011684597469866276,0.01109502837061882,0.012012275867164135
1746304114.44500017,46598647,-0.011712295934557915,0.011121153831481934,0.012012219056487083
1746304114.44799995,46601647,-0.011487782001495361,0.010909732431173325,0.012012232095003128
1746304114.45000005,46603647,-0.011514943093061447,0.01093536987900734,0.012012183666229248
1746304114.45300007,46606647,-0.011555712670087814,0.010973861441016197,0.01201210543513298
1746304114.45500016,46608647,-0.011582908220589161,0.010999549180269241,0.012012047693133354
1746304114.45799994,46611647,-0.011623736470937729,0.011038132011890411,0.01201197225600481
1746304114.46000004,46613647,-0.011395800858736038,0.010823520831763744,0.012012021616101265
1746304114.46300006,46616647,-0.011435863561928272,0.0108614107593894,0.012011958286166191
1746304114.46500015,46618647,-0.01146258320659399,0.010886689648032188,0.012011916376650333
1746304114.46799994,46621647,-0.01150269154459238,0.010924623347818851,0.01201185304671526
1746304114.47000003,46623647,-0.011529451236128807,0.010949928313493729,0.012011812068521976
1746304114.47300005,46626647,-0.0113240210339427,0.010756578296422958,0.012011829763650894
1746304114.47500014,46628647,-0.011350300163030624,0.01078143622726202,0.012011775746941566
1746304114.47800016,46631647,-0.011389750987291336,0.010818746872246265,0.012011703103780746
1746304114.48000002,46633647,-0.01141608040779829,0.01084363367408514,0.012011656537652016
1746304114.48300004,46636647,-0.011455628089606762,0.010880968533456326,0.012011582031846046
1746304114.48500013,46638647,-0.011246546171605587,0.010684078559279442,0.012011624872684479
1746304114.48800015,46641647,-0.01128540188074112,0.010720751248300076,0.012011552229523659
1746304114.49000001,46643647,-0.01131132710725069,0.010745223611593246,0.012011510320007801
1746304114.49300003,46646647,-0.011350243352353573,0.010781972669064999,0.012011459097266197
1746304114.49500012,46648647,-0.011376204900443554,0.010806496255099773,0.012011421844363213
1746304114.49800014,46651647,-0.011188565753400326,0.010629859752953053,0.012011431157588959
1746304114.50000000,46653647,-0.011214084923267365,0.010653960518538952,0.012011365033686161
1746304114.50300002,46656647,-0.011252389289438725,0.010690152645111084,0.012011256068944931
1746304114.50500011,46658647,-0.011277941055595875,0.010714298114180565,0.012011188082396984
1746304114.50800014,46661647,-0.011316296644508839,0.010750536806881428,0.012011086568236351
1746304114.50999999,46663647,-0.011124694719910622,0.010570148006081581,0.012011099606752396
1746304114.51300001,46666647,-0.011162412352859974,0.010605803690850735,0.012010983191430569
1746304114.51500010,46668647,-0.011187572032213211,0.010629601776599884,0.012010905891656876
1746304114.51800013,46671647,-0.011225342750549316,0.010665332898497581,0.012010800652205944
1746304114.51999998,46673647,-0.011250542476773262,0.010689171962440014,0.012010728940367699
1746304114.52300000,46676647,-0.011079413816332817,0.010528293438255787,0.012010699138045311
1746304114.52500010,46678647,-0.011104193516075611,0.010551742278039455,0.012010629288852215
1746304114.52800012,46681647,-0.011141378432512283,0.01058693416416645,0.01201053149998188
1746304114.52999997,46683647,-0.011166189797222614,0.010610414668917656,0.012010477483272552
1746304114.53299999,46686647,-0.011203443631529808,0.010645654052495956,0.012010399252176285
1746304114.53500009,46688647,-0.011028316803276539,0.010480949655175209,0.012010425329208374
1746304114.53800011,46691647,-0.011064998805522919,0.010515681467950344,0.012010356411337852
1746304114.53999996,46693647,-0.011089468374848366,0.010538862086832523,0.012010317295789719
1746304114.54299998,46696647,-0.011126196011900902,0.010573667474091053,0.01201026514172554
1746304114.54500008,46698647,-0.011150700971484184,0.010596898384392262,0.012010232545435429
1746304114.54800010,46701647,-0.010995442047715187,0.010451022535562515,0.012010259553790092
1746304114.54999995,46703647,-0.011019574478268623,0.010473895817995071,0.012010224163532257
1746304114.55299997,46706647,-0.011055810377001762,0.010508231818675995,0.012010181322693825
1746304114.55500007,46708647,-0.01107999961823225,0.010531141422688961,0.012010157108306885
1746304114.55800009,46711647,-0.01111632864922285,0.010565551929175854,0.012010124512016773
1746304114.55999994,46713647,-0.010957043617963791,0.010415803641080856,0.012010184116661549
1746304114.56299996,46716647,-0.010992840863764286,0.01044973824173212,0.012010139413177967
1746304114.56500006,46718647,-0.011016727425158024,0.010472383350133896,0.012010100297629833
1746304114.56800008,46721647,-0.011052584275603294,0.010506369173526764,0.012010045349597931
1746304114.57000017,46723647,-0.011076509952545166,0.01052903849631548,0.01201001089066267
1746304114.57299995,46726647,-0.010936487466096878,0.0103974724188447,0.012010025791823864
1746304114.57500005,46728647,-0.01096008624881506,0.010419821366667747,0.012009985744953156
1746304114.57800007,46731647,-0.010995508171617985,0.010453375987708569,0.012009921483695507
1746304114.58000016,46733647,-0.011019154451787472,0.0104757659137249,0.012009870260953903
1746304114.58299994,46736647,-0.01105464342981577,0.010509377345442772,0.012009785510599613
1746304114.58500004,46738647,-0.010910462588071823,0.010373852215707302,0.01200980506837368
1746304114.58800006,46741647,-0.010945471934974194,0.010407056659460068,0.01200973242521286
1746304114.59000015,46743647,-0.010968831367790699,0.010429230518639088,0.01200968399643898
1746304114.59299994,46746647,-0.011003902181982994,0.010462535545229912,0.01200960949063301
1746304114.59500003,46748647,-0.011027298867702484,0.010484757833182812,0.012009555473923683
1746304114.59800005,46751647,-0.01090177334845066,0.010366925969719887,0.012009543366730213
1746304114.60000014,46753647,-0.01092488132417202,0.01038886234164238,0.012009489350020885
1746304114.60300016,46756647,-0.01095957774668932,0.010421806946396828,0.012009409256279469
1746304114.60500002,46758647,-0.01098273042589426,0.0104437954723835,0.012009360827505589
1746304114.60800004,46761647,-0.01101748738437891,0.010476818308234215,0.012009301222860813
1746304114.61000013,46763647,-0.010761716403067112,0.010235510766506195,0.012009424157440662
1746304114.61300015,46766647,-0.010795582085847855,0.010267701931297779,0.01200935523957014
1746304114.61500001,46768647,-0.010818165726959705,0.01028916984796524,0.01200930867344141
1746304114.61800003,46771647,-0.010852064937353134,0.010321374982595444,0.01200923789292574
1746304114.62000012,46773647,-0.010874674655497074,0.010342850349843502,0.012009194120764732
1746304114.62300014,46776647,-0.010639986954629421,0.010121606290340424,0.012009292840957642
1746304114.62500000,46778647,-0.010662020184099674,0.010142526589334011,0.012009267695248127
1746304114.62800002,46781647,-0.010695075616240501,0.010173927992582321,0.012009236961603165
1746304114.63000011,46783647,-0.01071712002158165,0.0101948706433177,0.012009219266474247
1746304114.63300014,46786647,-0.010750207118690014,0.010226280428469181,0.012009206227958202
1746304114.63499999,46788647,-0.010514693334698677,0.01000415999442339,0.012009347788989544
1746304114.63800001,46791647,-0.010546947829425335,0.010034745559096336,0.012009333819150925
1746304114.64000010,46793647,-0.010568464174866676,0.010055141523480415,0.012009326368570328
1746304114.64300013,46796647,-0.010600749403238297,0.010085762478411198,0.012009323574602604
1746304114.64499998,46798647,-0.010622281581163406,0.01010619755834341,0.012009326368570328
1746304114.64800000,46801647,-0.010406718589365482,0.009902969002723694,0.012009457685053349
1746304114.65000010,46803647,-0.010427729226648808,0.009922918863594532,0.012009442783892155
1746304114.65300012,46806647,-0.01045925822108984,0.009952859953045845,0.012009420432150364
1746304114.65499997,46808647,-0.010480284690856934,0.009972832165658474,0.012009399011731148
1746304114.65799999,46811647,-0.010511845350265503,0.010002805851399899,0.012009358033537865
1746304114.66000009,46813647,-0.010295313782989979,0.00979860220104456,0.012009457685053349
1746304114.66300011,46816647,-0.010326137766242027,0.009827874600887299,0.01200937945395708
1746304114.66499996,46818647,-0.010346694849431515,0.009847394190728664,0.012009323574602604
1746304114.66799998,46821647,-0.010377543047070503,0.009876688942313194,0.012009229511022568
1746304114.67000008,46823647,-0.010398125275969505,0.009896225295960903,0.012009164318442345
1746304114.67300010,46826647,-0.010200449265539646,0.009709849022328854,0.012009208090603352
1746304114.67499995,46828647,-0.010220540687441826,0.009728935547173023,0.012009155005216599
1746304114.67799997,46831647,-0.010250675491988659,0.009757578372955322,0.01200907863676548
1746304114.68000007,46833647,-0.010270768776535988,0.009776679798960686,0.012009027414023876
1746304114.68300009,46836647,-0.010300898924469948,0.009805356152355671,0.01200895942747593
1746304114.68499994,46838647,-0.01010199822485447,0.009617834351956844,0.012009049765765667
1746304114.68799996,46841647,-0.01013140007853508,0.009645860642194748,0.01200898177921772
1746304114.69000006,46843647,-0.010151006281375885,0.009664556011557579,0.012008929625153542
1746304114.69300008,46846647,-0.010180429555475712,0.009692614898085594,0.01200883835554123
1746304114.69500017,46848647,-0.01020005438476801,0.009711327031254768,0.01200876571238041
1746304114.69799995,46851647,-0.010018903762102127,0.009540658444166183,0.01200876198709011
1746304114.70000005,46853647,-0.010038082487881184,0.00955895520746708,0.0120086669921875
1746304114.70300007,46856647,-0.01006687618792057,0.009586417116224766,0.012008520774543285
1746304114.70500016,46858647,-0.010086084716022015,0.009604738093912601,0.01200841460376978
1746304114.70799994,46861647,-0.010114909149706364,0.009632219560444355,0.012008246965706348
1746304114.71000004,46863647,-0.009932468645274639,0.009460199624300003,0.012008263729512691
1746304114.71300006,46866647,-0.009960675612092018,0.009487081319093704,0.01200811006128788
1746304114.71500015,46868647,-0.0099794901907444,0.009505022317171097,0.012008002027869225
1746304114.71799994,46871647,-0.010007712058722973,0.009531944058835506,0.012007851153612137
1746304114.72000003,46873647,-0.010026523843407631,0.009549890644848347,0.012007765471935272
1746304114.72300005,46876647,-0.009860917925834656,0.009393986314535141,0.012007768265902996
1746304114.72500014,46878647,-0.00987931713461876,0.009411553852260113,0.012007707729935646
1746304114.72800016,46881647,-0.009906933642923832,0.009437917731702328,0.012007612735033035
1746304114.73000002,46883647,-0.00992536824196577,0.009455496445298195,0.012007548473775387
1746304114.73300004,46886647,-0.009953035041689873,0.009481855668127537,0.012007469311356544
1746304114.73500013,46888647,-0.009786157868802547,0.009324603714048862,0.012007530778646469
1746304114.73800015,46891647,-0.00981326587498188,0.009350414387881756,0.012007453478872776
1746304114.74000001,46893647,-0.00983134564012289,0.009367628954350948,0.012007402256131172
1746304114.74300003,46896647,-0.00985847320407629,0.009393451735377312,0.012007342651486397
1746304114.74500012,46898647,-0.009876575320959091,0.009410673752427101,0.012007320299744606
1746304114.74800014,46901647,-0.009725963696837425,0.009268810041248798,0.012007409706711769
1746304114.75000000,46903647,-0.009743708185851574,0.009285696782171726,0.012007404118776321
1746304114.75300002,46906647,-0.009770330972969532,0.009311037138104439,0.012007388286292553
1746304114.75500011,46908647,-0.00978808756917715,0.009327934123575687,0.012007374316453934
1746304114.75800014,46911647,-0.00981475692242384,0.00935328472405672,0.01200735941529274
1746304114.75999999,46913647,-0.009662872180342674,0.009210102260112762,0.012007452547550201
1746304114.76300001,46916647,-0.009689032100141048,0.009234942495822906,0.01200745441019535
1746304114.76500010,46918647,-0.009706471115350723,0.00925151165574789,0.012007469311356544
1746304114.76800013,46921647,-0.00973264966160059,0.009276372380554676,0.012007500976324081
1746304114.76999998,46923647,-0.009750117547810078,0.009292950853705406,0.012007522396743298
1746304114.77300000,46926647,-0.00961384829133749,0.009164527989923954,0.012007667683064938
1746304114.77500010,46928647,-0.009631001390516758,0.009180795401334763,0.012007701210677624
1746304114.77800012,46931647,-0.009656758978962898,0.00920520257204771,0.012007754296064377
1746304114.77999997,46933647,-0.00967394094914198,0.009221481159329414,0.012007789686322212
1746304114.78299999,46936647,-0.009699732065200806,0.009245909750461578,0.01200784184038639
1746304114.78500009,46938647,-0.009562150575220585,0.009116150438785553,0.012007984332740307
1746304114.78800011,46941647,-0.00958748534321785,0.009140139445662498,0.012008053250610828
1746304114.78999996,46943647,-0.009604373015463352,0.009156153537333012,0.012008104473352432
1746304114.79299998,46946647,-0.009629698470234871,0.009180187247693539,0.0120081827044487
1746304114.79500008,46948647,-0.009646588936448097,0.009196215309202671,0.012008232064545155
1746304114.79800010,46951647,-0.009524006396532059,0.009080680087208748,0.012008421123027802
1746304114.79999995,46953647,-0.00954060535877943,0.009096437133848667,0.012008490972220898
1746304114.80299997,46956647,-0.009565511718392372,0.009120093658566475,0.012008585967123508
1746304114.80500007,46958647,-0.00958213023841381,0.00913587398827076,0.01200864277780056
1746304114.80800009,46961647,-0.009607074782252312,0.009159540757536888,0.01200873963534832
1746304114.80999994,46963647,-0.009376476518809795,0.008941138163208961,0.012009106576442719
1746304114.81299996,46966647,-0.009400635957717896,0.008964031003415585,0.012009192258119583
1746304114.81500006,46968647,-0.009416753426194191,0.008979287929832935,0.012009249068796635
1746304114.81800008,46971647,-0.009440930560231209,0.009002169594168663,0.012009328231215477
1746304114.82000017,46973647,-0.009457037784159184,0.009017418138682842,0.012009385041892529
1746304114.82299995,46976647,-0.009243491105735302,0.008815247565507889,0.012009777128696442
1746304114.82500005,46978647,-0.009259067475795746,0.008830013684928417,0.012009849771857262
1746304114.82800007,46981647,-0.009282433427870274,0.00885216798633337,0.012009953148663044
1746304114.83000016,46983647,-0.00929801445454359,0.008866941556334496,0.012010026723146439
1746304114.83299994,46986647,-0.009321399964392185,0.008889108896255493,0.012010143138468266
1746304114.83500004,46988647,-0.009109465405344963,0.008688445203006268,0.012010496109724045
1746304114.83800006,46991647,-0.00913210492581129,0.008709920570254326,0.012010606937110424
1746304114.84000015,46993647,-0.009147190488874912,0.008724246174097061,0.01201067678630352
1746304114.84299994,46996647,-0.009169813245534897,0.008745738305151463,0.012010778300464153
1746304114.84500003,46998647,-0.009184897877275944,0.008760064840316772,0.012010851874947548
1746304114.84800005,47001647,-0.008988975547254086,0.008574573323130608,0.012011254206299782
1746304114.85000014,47003647,-0.00900360383093357,0.008588441647589207,0.012011345475912094
1746304114.85300016,47006647,-0.009025546722114086,0.00860923808068037,0.012011467479169369
1746304114.85500002,47008647,-0.009040173143148422,0.008623097091913223,0.012011549435555935
1746304114.85800004,47011647,-0.009062103927135468,0.008643879555165768,0.012011690065264702
1746304114.86000013,47013647,-0.00886764470487833,0.008459716103971004,0.012012045830488205
1746304114.86300015,47016647,-0.008888890966773033,0.008479840122163296,0.012012176215648651
1746304114.86500001,47018647,-0.008903059177100658,0.008493265137076378,0.012012260034680367
1746304114.86800003,47021647,-0.008924306370317936,0.008513404987752438,0.012012381106615067
1746304114.87000012,47023647,-0.008938475511968136,0.008526833727955818,0.012012455612421036
1746304114.87300014,47026647,-0.008759020827710629,0.00835686456412077,0.012012815102934837
1746304114.87500000,47028647,-0.008772763423621655,0.00836989562958479,0.012012891471385956
1746304114.87800002,47031647,-0.008793382905423641,0.008389456197619438,0.01201301533728838
1746304114.88000011,47033647,-0.008807132951915264,0.008402513340115547,0.012013096362352371
1746304114.88300014,47036647,-0.008827774785459042,0.008422113955020905,0.012013223022222519
1746304114.88499999,47038647,-0.008649681694805622,0.008253427222371101,0.012013554573059082
1746304114.88800001,47041647,-0.008669723756611347,0.008272462524473667,0.012013676576316357
1746304114.89000010,47043647,-0.00868308637291193,0.00828516110777855,0.01201375387609005
1746304114.89300013,47046647,-0.008703125640749931,0.00830421969294548,0.012013887986540794
1746304114.89499998,47048647,-0.008716484531760216,0.008316942490637302,0.012013987638056278
1746304114.89800000,47051647,-0.008552427403628826,0.008161630481481552,0.012014370411634445
1746304114.90000010,47053647,-0.008565369993448257,0.008173992857336998,0.01201446633785963
1746304114.90300012,47056647,-0.00858478806912899,0.008192542009055614,0.012014603242278099
1746304114.90499997,47058647,-0.008597735315561295,0.008204913698136806,0.012014689855277538
1746304114.90799999,47061647,-0.008617157116532326,0.008223467506468296,0.012014833278954029
1746304114.91000009,47063647,-0.0084542790427804,0.008069213479757309,0.012015166692435741
1746304114.91300011,47066647,-0.00847310945391655,0.00808722898364067,0.012015307322144508
1746304114.91499996,47068647,-0.008485651575028896,0.008099239319562912,0.012015393003821373
1746304114.91799998,47071647,-0.008504463359713554,0.008117265067994595,0.012015524320304394
1746304114.92000008,47073647,-0.008517001755535603,0.008129286579787731,0.012015622109174728
1746304114.92300010,47076647,-0.008367246948182583,0.007987664081156254,0.012016009539365768
1746304114.92499995,47078647,-0.008379422128200531,0.007999341003596783,0.012016131542623043
1746304114.92799997,47081647,-0.00839769747108221,0.00801684707403183,0.01201632060110569
1746304114.93000007,47083647,-0.008409886620938778,0.008028514683246613,0.01201643981039524
1746304114.93300009,47086647,-0.0084281787276268,0.008046027272939682,0.012016620486974716
1746304114.93499994,47088647,-0.00827967282384634,0.007905464619398117,0.012016965076327324
1746304114.93799996,47091647,-0.008297471329569817,0.007922478020191193,0.012017163448035717
1746304114.94000006,47093647,-0.008309339173138142,0.00793380755931139,0.012017293833196163
1746304114.94300008,47096647,-0.00832714419811964,0.007950794883072376,0.012017502449452877
1746304114.94500017,47098647,-0.00833902694284916,0.007962126284837723,0.012017646804451942
1746304114.94799995,47101647,-0.008203146047890186,0.007833476178348064,0.012018078938126564
1746304114.95000005,47103647,-0.008214715868234634,0.007844510488212109,0.012018234468996525
1746304114.95300007,47106647,-0.008232075721025467,0.007861080579459667,0.012018467299640179
1746304114.95500016,47108647,-0.008243652060627937,0.007872137241065502,0.012018615379929543
1746304114.95799994,47111647,-0.00826101191341877,0.007888738065958023,0.01201881654560566
1746304114.96000004,47113647,-0.008126320317387581,0.007761198095977306,0.012019145302474499
1746304114.96300006,47116647,-0.008143216371536255,0.0077773528173565865,0.012019324116408825
1746304114.96500015,47118647,-0.00815447885543108,0.007788109593093395,0.012019437737762928
1746304114.96799994,47121647,-0.00817137397825718,0.00780424615368247,0.012019607238471508
1746304114.97000003,47123647,-0.008182641118764877,0.007815015502274036,0.012019720859825611
1746304114.97300005,47126647,-0.008059929125010967,0.007698835339397192,0.012020103633403778
1746304114.97500014,47128647,-0.008070910349488258,0.0077093313448131084,0.012020238675177097
1746304114.97800016,47131647,-0.008087372407317162,0.007725077215582132,0.012020454742014408
1746304114.98000002,47133647,-0.008098343387246132,0.007735573220998049,0.012020593509078026
1746304114.98300004,47136647,-0.00811480637639761,0.0077513279393315315,0.01202080212533474
1746304114.98500013,47138647,-0.007993243634700775,0.007636180147528648,0.012021140195429325
1746304114.98800015,47141647,-0.008009313605725765,0.007651561871170998,0.012021359987556934
1746304114.99000001,47143647,-0.008020023815333843,0.00766181293874979,0.012021511793136597
1746304114.99300003,47146647,-0.008036084473133087,0.0076771932654082775,0.012021731585264206
1746304114.99500012,47148647,-0.008046790026128292,0.007687447592616081,0.012021875008940697
1746304114.99800014,47151647,-0.00793659407645464,0.007583120372146368,0.012022283859550953
1746304115.00000000,47153647,-0.007947024889290333,0.007593123707920313,0.012022431008517742
1746304115.00300002,47156647,-0.007962671108543873,0.007608136162161827,0.012022641487419605
1746304115.00500011,47158647,-0.007973110303282738,0.007618151139467955,0.012022779323160648
1746304115.00800014,47161647,-0.007988780736923218,0.007633179426193237,0.012022985145449638
1746304115.00999999,47163647,-0.007792314514517784,0.007446704898029566,0.012022923678159714
1746304115.01300001,47166647,-0.007807310204952955,0.007461095228791237,0.01202313881367445
1746304115.01500010,47168647,-0.007817300036549568,0.007470679935067892,0.012023292481899261
1746304115.01800013,47171647,-0.007832270115613937,0.007485043257474899,0.012023519724607468
1746304115.01999998,47173647,-0.007842238992452621,0.007494616322219372,0.01202367339283228
1746304115.02300000,47176647,-0.007658848073333502,0.00732069555670023,0.012023726478219032
1746304115.02500010,47178647,-0.00766838388517499,0.00732986768707633,0.012023882940411568
1746304115.02800012,47181647,-0.0076826815493404865,0.007343614473938942,0.012024110183119774
1746304115.02999997,47183647,-0.007692219223827124,0.007352771237492561,0.012024261988699436
1746304115.03299999,47186647,-0.007706526666879654,0.0073664928786456585,0.012024495750665665
1746304115.03500009,47188647,-0.007526802830398083,0.007195950020104647,0.012024475261569023
1746304115.03800011,47191647,-0.0075404830276966095,0.007209075149148703,0.012024704366922379
1746304115.03999996,47193647,-0.007549596019089222,0.007217808160930872,0.012024855241179466
1746304115.04299998,47196647,-0.007563240360468626,0.00723089836537838,0.012025097385048866
1746304115.04500008,47198647,-0.0075723216868937016,0.007239622063934803,0.012025261297821999
1746304115.04800010,47201647,-0.007404732517898083,0.007080623414367437,0.012025329284369946
1746304115.04999995,47203647,-0.007413425017148256,0.007088960614055395,0.012025486677885056
1746304115.05299997,47206647,-0.007426450029015541,0.0071014524437487125,0.012025734409689903
1746304115.05500007,47208647,-0.007435118779540062,0.0071097775362432,0.012025900185108185
1746304115.05800009,47211647,-0.007448126561939716,0.007122269365936518,0.012026140466332436
1746304115.05999994,47213647,-0.007284078747034073,0.006966541986912489,0.012026144191622734
1746304115.06299996,47216647,-0.007296513766050339,0.006978488992899656,0.012026402167975903
1746304115.06500006,47218647,-0.007304794620722532,0.0069864545948803425,0.012026566080749035
1746304115.06800008,47221647,-0.007317202165722847,0.006998411379754543,0.012026811018586159
1746304115.07000017,47223647,-0.007325463928282261,0.0070063890889286995,0.012026977725327015
1746304115.07299995,47226647,-0.007172648329287767,0.006861401256173849,0.012027068994939327
1746304115.07500005,47228647,-0.007180560380220413,0.0068690357729792595,0.012027229182422161
1746304115.07800007,47231647,-0.007192410062998533,0.006880483590066433,0.01202748529613018
1746304115.08000016,47233647,-0.007200303021818399,0.006888117641210556,0.012027658522129059
1746304115.08299994,47236647,-0.007212136406451464,0.006899581756442785,0.012027913704514503
1746304115.08500004,47238647,-0.0070627168752253056,0.006757755763828754,0.012027936056256294
1746304115.08800006,47241647,-0.00707402965053916,0.006768742576241493,0.012028184719383717
1746304115.09000015,47243647,-0.0070815724320709705,0.006776063237339258,0.012028349563479424
1746304115.09299994,47246647,-0.0070928893983364105,0.006787023972719908,0.01202859915792942
1746304115.09500003,47248647,-0.007100424263626337,0.006794331595301628,0.01202877052128315
1746304115.09800005,47251647,-0.00696138758212328,0.006662432104349136,0.012028882279992104
1746304115.10000014,47253647,-0.006968583911657333,0.006669425405561924,0.01202904712408781
1746304115.10300016,47256647,-0.0069793774746358395,0.006679910235106945,0.012029298581182957
1746304115.10500002,47258647,-0.00698656914755702,0.006686896551400423,0.012029480189085007
1746304115.10800004,47261647,-0.00699735339730978,0.006697370205074549,0.012029769830405712
1746304115.11000013,47263647,-0.006861591711640358,0.006568464450538158,0.012029832229018211
1746304115.11300015,47266647,-0.006871919613331556,0.006578498985618353,0.012030127458274364
1746304115.11500001,47268647,-0.006878810003399849,0.006585191003978252,0.012030322104692459
1746304115.11800003,47271647,-0.006889151409268379,0.006595240905880928,0.012030607089400291
1746304115.12000012,47273647,-0.006896045058965683,0.006601947359740734,0.012030793353915215
1746304115.12300014,47276647,-0.006769953295588493,0.006482368800789118,0.012030920013785362
1746304115.12500000,47278647,-0.00677655590698123,0.0064888023771345615,0.01203108113259077
1746304115.12800002,47281647,-0.006786452606320381,0.006498458795249462,0.012031319551169872
1746304115.13000011,47283647,-0.0067930505611002445,0.006504885386675596,0.012031481601297855
1746304115.13300014,47286647,-0.006802941672503948,0.006514525040984154,0.012031721882522106
1746304115.13499999,47288647,-0.006680069956928492,0.006397923454642296,0.012031758204102516
1746304115.13800001,47291647,-0.006689524743705988,0.00640719523653388,0.012031986378133297
1746304115.14000010,47293647,-0.006695817690342665,0.006413382478058338,0.01203213445842266
1746304115.14300013,47296647,-0.00670524500310421,0.006422659382224083,0.012032371014356613
1746304115.14499998,47298647,-0.00671152351424098,0.006428837776184082,0.012032527476549149
1746304115.14800000,47301647,-0.006597722880542278,0.006320942658931017,0.012032641097903252
1746304115.15000010,47303647,-0.0066037531942129135,0.006326863542199135,0.012032784521579742
1746304115.15300012,47306647,-0.006612784694880247,0.006335756275802851,0.012032978236675262
1746304115.15499997,47308647,-0.006618800573050976,0.006341683678328991,0.012033103965222836
1746304115.15799999,47311647,-0.006627811584621668,0.006350591313093901,0.012033284641802311
1746304115.16000009,47313647,-0.0065171923488378525,0.0062456391751766205,0.012033289298415184
1746304115.16300011,47316647,-0.00652582012116909,0.006254198029637337,0.012033473700284958
1746304115.16499996,47318647,-0.00653156777843833,0.0062598963268101215,0.012033598497509956
1746304115.16799998,47321647,-0.006540175527334213,0.006268447730690241,0.012033797800540924
1746304115.17000008,47323647,-0.006545905489474535,0.006274151615798473,0.012033939361572266
1746304115.17300010,47326647,-0.006443782243877649,0.006177377887070179,0.012034057639539242
1746304115.17499995,47328647,-0.006449276581406593,0.0061828563921153545,0.012034212239086628
1746304115.17799997,47331647,-0.006457512266933918,0.006191073451191187,0.012034440413117409
1746304115.18000007,47333647,-0.006463002413511276,0.006196551490575075,0.012034582905471325
1746304115.18300009,47336647,-0.0064712450839579105,0.006204758305102587,0.012034779414534569
1746304115.18499994,47338647,-0.006372267380356789,0.00611078692600131,0.012034807354211807
1746304115.18799996,47341647,-0.006380193866789341,0.006118634715676308,0.012034988030791283
1746304115.19000006,47343647,-0.006385474000126123,0.0061238729394972324,0.012035110034048557
1746304115.19300008,47346647,-0.006393370684236288,0.006131735630333424,0.012035319581627846
1746304115.19500017,47348647,-0.006398621015250683,0.006136979907751083,0.012035470455884933
1746304115.19799995,47351647,-0.006307587027549744,0.0060507142916321754,0.012035613879561424
1746304115.20000005,47353647,-0.006312621291726828,0.006055773701518774,0.012035779654979706
1746304115.20300007,47356647,-0.006320182234048843,0.006063354667276144,0.012036028318107128
1746304115.20500016,47358647,-0.006325218826532364,0.0060684047639369965,0.01203620433807373
1746304115.20799994,47361647,-0.00633277278393507,0.006075981073081493,0.012036471627652645
1746304115.21000004,47363647,-0.006175467278808355,0.00592625280842185,0.012035911902785301
1746304115.21300006,47366647,-0.006182535085827112,0.005933371372520924,0.012036178261041641
1746304115.21500015,47368647,-0.006187240593135357,0.005938126239925623,0.012036347761750221
1746304115.21799994,47371647,-0.006194291170686483,0.00594527181237936,0.012036604806780815
1746304115.22000003,47373647,-0.006198982708156109,0.00595004903152585,0.01203678734600544
1746304115.22300005,47376647,-0.00605110265314579,0.005809575319290161,0.01203633937984705
1746304115.22500014,47378647,-0.006055478006601334,0.005814054049551487,0.01203650701791048
1746304115.22800016,47381647,-0.006062024738639593,0.005820771679282188,0.012036748230457306
1746304115.23000002,47383647,-0.006066381465643644,0.0058252448216080666,0.012036910280585289
1746304115.23300004,47386647,-0.006072909105569124,0.00583193963393569,0.012037157081067562
1746304115.23500013,47388647,-0.0059301648288965225,0.005696174688637257,0.012036633677780628
1746304115.23800015,47391647,-0.005936203058809042,0.0057024359703063965,0.012036875821650028
1746304115.24000001,47393647,-0.0059402151964604855,0.005706618539988995,0.012037042528390884
1746304115.24300003,47396647,-0.005946221761405468,0.005712883081287146,0.012037284672260284
1746304115.24500012,47398647,-0.005950225051492453,0.005717049818485975,0.012037433683872223
1746304115.24800014,47401647,-0.005816126242280006,0.005589689128100872,0.012036999687552452
1746304115.25000000,47403647,-0.005819841753691435,0.005593595094978809,0.012037144042551517
1746304115.25300002,47406647,-0.0058253975585103035,0.005599455442279577,0.012037350796163082
1746304115.25500011,47408647,-0.0058291018940508366,0.005603358149528503,0.012037493288516998
1746304115.25800014,47411647,-0.005834662355482578,0.005609196610748768,0.012037712149322033
1746304115.25999999,47413647,-0.005705552641302347,0.005486375652253628,0.012037239037454128
1746304115.26300001,47416647,-0.00571068050339818,0.005491805262863636,0.012037472799420357
1746304115.26500010,47418647,-0.005714097060263157,0.005495424848049879,0.01203763484954834
1746304115.26800013,47421647,-0.005719220731407404,0.005500842351466417,0.012037870474159718
1746304115.26999998,47423647,-0.005722633562982082,0.005504447966814041,0.012038012966513634
1746304115.27300000,47426647,-0.005601441487669945,0.0053892903961241245,0.012037616223096848
1746304115.27500010,47428647,-0.00560459541156888,0.005392624530941248,0.012037757784128189
1746304115.27800012,47431647,-0.005609301384538412,0.0053976005874574184,0.012037965469062328
1746304115.27999997,47433647,-0.005612432956695557,0.005400904919952154,0.012038095854222775
1746304115.28299999,47436647,-0.005617138929665089,0.005405855365097523,0.01203829050064087
1746304115.28500009,47438647,-0.00550075015053153,0.0052950261160731316,0.01203785091638565
1746304115.28800011,47441647,-0.00550506729632616,0.005299577489495277,0.012038057669997215
1746304115.28999996,47443647,-0.005507936701178551,0.005302599165588617,0.012038204818964005
1746304115.29299998,47446647,-0.005512222182005644,0.005307122599333525,0.012038442306220531
1746304115.29500008,47448647,-0.005515071097761393,0.005310137290507555,0.01203861553221941
1746304115.29800010,47451647,-0.005405825562775135,0.005206250119954348,0.01203834731131792
1746304115.29999995,47453647,-0.005408403929322958,0.005209034308791161,0.012038540095090866
1746304115.30299997,47456647,-0.005412271246314049,0.005213217809796333,0.012038826942443848
1746304115.30500007,47458647,-0.005414845421910286,0.005216001067310572,0.01203901693224907
1746304115.30800009,47461647,-0.005418696906417608,0.005220177583396435,0.012039294466376305
1746304115.30999994,47463647,-0.005314087960869074,0.005120554007589817,0.012038958258926868
1746304115.31299996,47466647,-0.005317589733749628,0.005124395713210106,0.012039238587021828
1746304115.31500006,47468647,-0.005319914314895868,0.005126952659338713,0.012039420194923878
1746304115.31800008,47471647,-0.005323378834873438,0.005130792036652565,0.012039688415825367
1746304115.32000017,47473647,-0.005325677804648876,0.005133350379765034,0.01203986257314682
